"weight"|"lat"|"lon"|"Location"|Create Date|Closed Date|Due Date|CaseType|Case Number         
1|29.53088025|-95.16657985|2723 PIRATES GOLD, UNINCORPORATED TX 77546|2017-09-28 13:34:48.383|                   NULL|2017-10-02 13:34:48.000|Flooding|        101002774454
1|29.54594436|-95.13874204|16159 PIPERS VIEW, HOUSTON TX 77598|2017-09-10 09:18:12.690|2017-09-15 08:40:12.780|2017-09-14 09:18:12.000|Flooding|        101002743511
1|29.54594436|-95.13874204|16159 PIPERS VIEW, HOUSTON TX 77598|2017-10-16 14:36:14.733|2017-10-18 15:10:14.927|2017-10-20 14:36:14.000|Flooding|        101002793417
1|29.54605566|-95.13887932|16155 PIPERS VIEW, HOUSTON TX 77598|2017-09-10 08:57:14.103|2017-09-12 07:55:13.903|2017-09-14 08:57:13.000|Flooding|        101002743501
1|29.54610221|-95.13844735|334 WEDGEROCK, HOUSTON TX 77598|2017-10-18 18:09:18.600|2017-10-19 15:45:20.740|2017-10-22 18:09:18.000|Flooding|        101002796356
1|29.54627817|-95.13916035|16147 PIPERS VIEW, HOUSTON TX 77598|2017-09-10 09:27:34.527|2017-09-15 08:35:07.670|2017-09-14 09:27:34.000|Flooding|        101002743516
1|29.54707061|-95.138361|355 WEDGEROCK, HOUSTON TX 77598|2017-10-23 09:10:04.690|2017-10-26 10:35:05.423|2017-10-27 09:10:04.000|Flooding|        101002799944
1|29.55219661|-95.09426872|Intersection 1400 2ND ST&17900 SATURN LN|2017-08-28 18:24:58.183|2017-09-04 14:50:06.877|2017-09-01 18:24:58.000|Flooding|        101002725373
1|29.55398216|-95.14440126|15739 CASTORGLEN, HOUSTON TX 77598|2017-09-25 08:11:46.050|2017-10-11 15:00:16.537|2017-09-29 08:11:45.000|Flooding|        101002768407
1|29.5561828|-95.12580235|855 VOYAGER, HOUSTON TX 77062|2017-09-18 16:18:03.873|2017-09-20 08:00:12.767|2017-09-22 16:18:03.000|Flooding|        101002758286
1|29.5564315|-95.11880512|1055 BAY AREA, HOUSTON TX 77062|2017-08-29 10:27:48.200|2017-09-05 08:55:12.253|2017-09-02 10:27:47.000|Flooding|        101002726167
1|29.55954121|-95.12168035|16530 DIANA, HOUSTON TX 77062|2017-08-27 01:16:29.530|2017-09-04 15:55:11.193|2017-08-31 01:16:29.000|Flooding|        101002721726
1|29.5612539|-95.10875663|16803 HOLLY TRAIL, HOUSTON TX 77058|2017-09-21 13:45:22.997|2017-09-25 15:45:14.343|2017-09-25 13:45:22.000|Flooding|        101002764575
1|29.56324193|-95.14706666|534 PENCE, HOUSTON TX 77598|2017-09-20 05:17:32.073|2017-09-25 15:20:13.783|2017-09-24 05:17:31.000|Flooding|        101002761395
1|29.56554751|-95.10952206|1906 PEPPER HILL, HOUSTON TX 77058|2017-09-20 07:12:27.730|2017-09-25 15:20:13.820|2017-09-24 07:12:27.000|Flooding|        101002761452
1|29.56854298|-95.14472976|38 OAK HARBOR, HOUSTON TX 77062|2017-08-26 08:59:10.867|2017-08-26 14:50:07.740|2017-08-30 08:59:10.000|Flooding|        101002720547
1|29.57027311|-95.1505133|695 PINELOCH, HOUSTON TX 77598|2017-08-27 03:03:04.830|2017-09-05 07:35:11.743|2017-08-31 03:03:04.000|Flooding|        101002721847
1|29.57138982|-95.13788819|15427 PEERMONT, HOUSTON TX 77062|2017-09-08 09:52:22.060|2017-09-11 09:40:24.947|2017-09-12 09:52:21.000|Flooding|        101002740864
1|29.57623224|-95.15479492|14134 GALVESTON, HOUSTON TX 77598|2017-09-19 13:54:37.023|2017-09-21 07:50:12.160|2017-09-23 13:54:36.000|Flooding|        101002760396
1|29.57688196|-95.15043573|814 PRAIRIE BROOK, HOUSTON TX 77062|2017-09-13 12:05:14.543|2017-09-15 15:05:14.590|2017-09-17 12:05:14.000|Flooding|        101002749520
1|29.57703765|-95.51696238|17103 QUAIL BEND, HOUSTON TX 77489|2017-09-01 11:17:48.080|2017-09-04 13:25:11.790|2017-09-05 11:17:47.000|Flooding|        101002730625
1|29.57770035|-95.22172315|10218 SAGECOURT, UNINCORPORATED TX 77089|2017-08-27 02:02:10.500|2017-09-04 16:30:11.513|2017-08-31 02:02:10.000|Flooding|        101002721779
1|29.58310779|-95.45683457|16602 W RIPPLE RIDGE, HOUSTON TX 77053|2017-08-29 08:52:37.567|2017-09-04 16:10:11.477|2017-09-02 08:52:36.000|Flooding|        101002726004
1|29.5849151|-95.19455212|12519 COOPERSTOWN, HOUSTON TX 77089|2017-08-27 09:46:35.740|2017-09-01 14:00:19.870|2017-08-31 09:46:35.000|Flooding|        101002722538
1|29.58500699|-95.22785468|11307 SAGECANYON, HOUSTON TX 77089|2017-09-18 08:50:58.313|2017-09-20 08:00:12.063|2017-09-22 08:50:58.000|Flooding|        101002756805
1|29.58502462|-95.19670702|12506 NEW ROCHELLE, HOUSTON TX 77089|2017-08-27 09:54:36.253|2017-09-01 14:00:20.143|2017-08-31 09:54:35.000|Flooding|        101002722563
1|29.58506037|-95.45248369|16202 PURPLERIDGE, HOUSTON TX 77053|2017-08-27 14:02:23.560|2017-09-04 14:30:06.767|2017-08-31 14:02:23.000|Flooding|        101002723094
1|29.58570812|-95.1950897|12222 NEW BRUNSWICK, HOUSTON TX 77089|2017-08-27 06:30:09.323|2017-09-01 14:00:19.493|2017-08-31 06:30:06.000|Flooding|        101002722135
1|29.58570888|-95.19545908|12526 ADIRONDACK, HOUSTON TX 77089|2017-08-27 05:33:17.057|2017-09-01 14:00:19.090|2017-08-31 05:33:16.000|Flooding|        101002722044
1|29.58621242|-95.45022691|4642 RIDGEROD, HOUSTON TX 77053|2017-09-05 12:30:18.670|2017-09-08 07:05:13.587|2017-09-09 12:30:18.000|Flooding|        101002735288
1|29.58650548|-95.19315218|12706 COOPERSTOWN, HOUSTON TX 77089|2017-09-22 10:20:41.033|2017-09-26 08:30:19.097|2017-09-26 10:20:40.000|Flooding|        101002765812
1|29.58679171|-95.19286505|12714 COOPERSTOWN, HOUSTON TX 77089|2017-08-27 03:26:04.597|2017-09-01 14:00:18.993|2017-08-31 03:26:03.000|Flooding|        101002721876
1|29.58679611|-95.19158326|12314 FAIRBURY, HOUSTON TX 77089|2017-09-06 10:56:18.910|2017-09-08 08:00:15.660|2017-09-10 10:56:18.000|Flooding|        101002737120
1|29.58772458|-95.19144441|12338 FLUSHING MEADOWS, HOUSTON TX 77089|2017-08-27 06:49:49.897|2017-09-01 14:00:19.380|2017-08-31 06:49:49.000|Flooding|        101002722160
1|29.58786821|-95.20141715|11907 RHINEBECK, HOUSTON TX 77089|2017-09-06 18:43:44.400|2017-09-11 09:45:14.573|2017-09-10 18:43:44.000|Flooding|        101002738189
1|29.58789395|-95.19162189|12235 FAIRBURY, HOUSTON TX 77089|2017-08-27 13:21:51.453|2017-09-01 14:00:19.993|2017-08-31 13:21:50.000|Flooding|        101002723009
1|29.58793521|-95.19605061|12102 SHERRILL, HOUSTON TX 77089|2017-08-27 02:39:18.710|2017-09-01 14:45:17.250|2017-08-31 02:39:18.000|Flooding|        101002721818
1|29.58807531|-95.47956817|6319 MARINWOOD, HOUSTON TX 77053|2017-09-26 21:11:05.800|2017-10-11 13:25:15.533|2017-09-30 21:11:05.000|Flooding|        101002771912
1|29.58812649|-95.11186426|16031 CLEARCREST, HOUSTON TX 77059|2017-09-11 16:00:35.883|2017-09-15 08:20:10.943|2017-09-15 16:00:35.000|Flooding|        101002745510
1|29.58838872|-95.19336756|12203 POMPTON, HOUSTON TX 77089|2017-08-27 02:41:07.047|2017-09-01 14:00:18.850|2017-08-31 02:41:06.000|Flooding|        101002721821
1|29.58851337|-95.196679|12022 SHERRILL, HOUSTON TX 77089|2017-09-06 05:51:10.223|2017-09-08 08:20:14.230|2017-09-10 05:51:10.000|Flooding|        101002736475
1|29.58951664|-95.22966335|11007 SAGEBURROW, HOUSTON TX 77089|2017-08-26 23:19:10.890|2017-09-06 06:20:17.483|2017-08-30 23:19:10.000|Flooding|        101002721564
1|29.58961343|-95.20192402|12426 CORNING, HOUSTON TX 77089|2017-09-04 17:02:56.813|2017-09-06 09:50:13.120|2017-09-08 17:02:55.000|Flooding|        101002734384
1|29.58963066|-95.19593865|12007 RYEWATER, HOUSTON TX 77089|2017-08-27 08:58:21.257|2017-09-01 14:00:19.763|2017-08-31 08:58:21.000|Flooding|        101002722394
1|29.59007006|-95.44995094|4718 E RIDGECREEK, HOUSTON TX 77053|2017-08-27 13:26:00.467|2017-09-04 14:30:06.733|2017-08-31 13:26:00.000|Flooding|        101002723015
1|29.59011734|-95.23021829|10927 SAGEBURROW, HOUSTON TX 77089|2017-08-27 16:52:45.493|2017-09-04 14:35:11.510|2017-08-31 16:52:45.000|Flooding|        101002723415
1|29.59032704|-95.45365172|5025 E RIDGE CREEK, HOUSTON TX 77053|2017-08-26 22:33:23.033|2017-09-02 13:15:22.157|2017-08-30 22:33:22.000|Flooding|        101002721474
1|29.59055049|-95.45333215|5047 E RIDGE CREEK, HOUSTON TX 77053|2017-08-26 22:45:08.070|2017-09-02 13:20:12.110|2017-08-30 22:45:07.000|Flooding|        101002721501
1|29.59079905|-95.46591153|5419 CASTLECREEK, HOUSTON TX 77053|2017-09-06 13:39:36.500|2017-09-11 09:40:16.120|2017-09-10 13:39:36.000|Flooding|        101002737559
1|29.59088896|-95.22513081|11119 SAGEWIND, HOUSTON TX 77089|2017-09-16 09:37:00.827|2017-09-20 07:55:12.010|2017-09-20 09:37:00.000|Flooding|        101002755095
1|29.59119207|-95.21921338|11319 SAGEHILL, HOUSTON TX 77089|2017-09-05 18:30:53.260|2017-09-08 08:05:13.247|2017-09-09 18:30:53.000|Flooding|        101002736224
1|29.59124673|-95.19284287|12035 FLUSHING MEADOWS, HOUSTON TX 77089|2017-08-27 01:19:58.833|2017-09-01 14:00:18.710|2017-08-31 01:19:58.000|Flooding|        101002721733
1|29.59125563|-95.22001446|11334 SAGEHILL, HOUSTON TX 77089|2017-08-31 15:07:36.770|2017-09-06 11:15:17.270|2017-09-04 15:07:36.000|Flooding|        101002729428
1|29.59172531|-95.13529128|1914 SANDGATE FALLS, HOUSTON TX 77062|2017-09-11 14:33:43.287|2017-09-15 08:06:43.063|2017-09-15 14:33:43.000|Flooding|        101002745249
1|29.59179536|-95.21896676|11314 SAGEVIEW, HOUSTON TX 77089|2017-08-27 00:18:34.253|2017-09-06 06:25:07.350|2017-08-31 00:18:34.000|Flooding|        101002721671
1|29.59208863|-95.13806159|Intersection 2400 CLEAR LAKE CITY BLVD&14100 SPACE CENTER BL|2017-03-29 17:33:11.743|2017-03-30 10:10:06.253|2017-04-02 17:33:11.000|Flooding|        101002551205
1|29.59284464|-95.1366009|1911 TANGLE PINES, HOUSTON TX 77062|2017-09-12 07:57:10.997|2017-09-15 07:55:16.533|2017-09-16 07:57:10.000|Flooding|        101002746158
1|29.5930118|-95.46828453|Intersection 5500 GINERIDGE DR&16000 S POST OAK RD|2017-10-22 09:51:53.873|2017-10-23 14:15:05.463|2017-10-26 09:51:53.000|Flooding|        101002799418
1|29.593069|-95.13048844|14307 RIPPLING CREEK, HOUSTON TX 77062|2017-09-12 11:43:57.173|2017-09-15 08:06:43.147|2017-09-16 11:43:56.000|Flooding|        101002746934
1|29.5939744|-95.20103263|12719 WHITE PLAINS, HOUSTON TX 77089|2017-08-30 19:24:46.463|2017-09-01 14:45:18.413|2017-09-03 19:24:46.000|Flooding|        101002728264
1|29.59403142|-95.18586152|13703 HERBRAND, HOUSTON TX 77034|2017-08-29 13:36:44.547|2017-09-04 15:10:11.113|2017-09-02 13:36:44.000|Flooding|        101002726403
1|29.59418233|-95.21925963|11206 SAGERIVER, HOUSTON TX 77089|2017-03-29 15:22:12.180|2017-03-30 09:00:05.980|2017-04-02 15:22:12.000|Flooding|        101002550866
1|29.59425343|-95.22431301|11003 SAGEHILL, HOUSTON TX 77089|2017-08-27 03:08:16.997|2017-09-05 15:25:07.483|2017-08-31 03:08:16.000|Flooding|        101002721851
1|29.59451954|-95.22865258|10819 SAGEWIND, HOUSTON TX 77089|2017-08-27 01:18:06.450|2017-09-04 16:35:06.227|2017-08-31 01:18:06.000|Flooding|        101002721728
1|29.5947729|-95.20606524|11606 BURLWOOD, UNINCORPORATED TX 77089|2017-08-27 03:06:14.780|2017-09-01 14:00:18.527|2017-08-31 03:06:14.000|Flooding|        101002721850
1|29.594805|-95.2225758|11026 SAGEVIEW, HOUSTON TX 77089|2017-08-27 13:46:10.463|2017-09-05 15:20:11.993|2017-08-31 13:46:09.000|Flooding|        101002723066
1|29.59505922|-95.22030202|11118 SAGERIVER, HOUSTON TX 77089|2017-08-27 02:21:51.163|2017-09-05 12:15:12.387|2017-08-31 02:21:51.000|Flooding|        101002721802
1|29.59506063|-95.20688985|11602 GRAPEWOOD, UNINCORPORATED TX 77089|2017-08-27 05:25:12.580|2017-09-01 14:00:18.430|2017-08-31 05:25:12.000|Flooding|        101002722031
1|29.59536958|-95.22197001|11026 SAGEHEATHER, HOUSTON TX 77089|2017-08-30 07:14:01.683|2017-09-06 08:20:08.220|2017-09-03 07:14:01.000|Flooding|        101002727017
1|29.59538562|-95.22818327|10807 SAGEGULF, HOUSTON TX 77089|2017-08-27 09:21:37.200|2017-09-05 08:15:07.270|2017-08-31 09:21:36.000|Flooding|        101002722458
1|29.59541344|-95.22725298|10818 SAGEGULF, HOUSTON TX 77089|2017-08-27 01:34:03.700|2017-09-04 16:35:06.180|2017-08-31 01:34:03.000|Flooding|        101002721750
1|29.5956122|-95.48587323|15834 RIDGEROCK, HOUSTON TX 77489|2017-09-24 12:17:22.257|2017-09-26 13:40:15.013|2017-09-28 12:17:22.000|Flooding|        101002767918
1|29.59576051|-95.18518522|13719 GROSVENOR, HOUSTON TX 77034|2017-08-27 02:03:43.263|2017-09-01 14:50:20.440|2017-08-31 02:03:43.000|Flooding|        101002721781
1|29.59608587|-95.22354094|11023 SAGEORCHARD, HOUSTON TX 77089|2017-08-28 12:41:00.997|2017-09-06 06:30:14.820|2017-09-01 12:41:00.000|Flooding|        101002724627
1|29.59637505|-95.20423767|11914 CORKWOOD, UNINCORPORATED TX 77089|2017-08-27 12:25:53.993|2017-09-05 14:35:11.830|2017-08-31 12:25:53.000|Flooding|        101002722913
1|29.59683155|-95.48441543|6630 MCCULLUM, HOUSTON TX 77489|2017-08-26 22:59:24.457|2017-09-02 13:20:12.163|2017-08-30 22:59:24.000|Flooding|        101002721528
1|29.59706967|-95.14740118|2219 VILLAGE DALE, HOUSTON TX 77059|2017-09-19 13:02:50.560|2017-09-21 07:50:11.963|2017-09-23 13:02:50.000|Flooding|        101002760236
1|29.59725703|-95.50044476|15731 ROSEBRIAR, HOUSTON TX 77489|2017-08-26 22:37:49.607|2017-09-04 14:05:11.840|2017-08-30 22:37:49.000|Flooding|        101002721486
1|29.59774514|-95.21499858|11410 SAGEHOLLOW, HOUSTON TX 77089|2017-08-27 05:29:40.927|2017-09-05 12:45:06.830|2017-08-31 05:29:40.000|Flooding|        101002722039
1|29.59789001|-95.21486533|11414 SAGEHOLLOW, HOUSTON TX 77089|2017-08-27 09:23:37.333|2017-09-05 12:15:12.553|2017-08-31 09:23:37.000|Flooding|        101002722464
1|29.59796853|-95.47070164|5634 IRISH HILL, HOUSTON TX 77053|2017-09-04 14:15:40.707|2017-09-08 07:00:16.047|2017-09-08 14:15:40.000|Flooding|        101002734162
1|29.59820212|-95.21331779|11502 SAGEHURST, HOUSTON TX 77089|2017-09-13 15:16:16.913|2017-09-15 13:35:11.340|2017-09-17 15:16:16.000|Flooding|        101002749952
1|29.59865007|-95.21474661|11427 SAGEHOLLOW, HOUSTON TX 77089|2017-08-27 00:40:46.630|2017-09-05 13:40:12.103|2017-08-31 00:40:45.000|Flooding|        101002721689
1|29.59884517|-95.22604964|11034 KIRKMEAD, UNINCORPORATED TX 77089|2017-08-27 04:02:21.753|2017-09-05 07:40:11.400|2017-08-31 04:02:21.000|Flooding|        101002721910
1|29.59891245|-95.21328074|11515 SAGEHURST, HOUSTON TX 77089|2017-08-27 04:50:15.877|2017-09-08 10:15:14.310|2017-08-31 04:50:15.000|Flooding|        101002721979
1|29.59928969|-95.48981037|6826 FUQUA, HOUSTON TX 77489|2017-08-26 21:24:06.773|2017-08-30 13:00:13.250|2017-08-30 21:24:06.000|Flooding|        101002721342
1|29.59961834|-95.48961127|6827 INDIAN FALLS, HOUSTON TX 77489|2017-09-11 10:01:05.080|2017-09-13 09:45:14.987|2017-09-15 10:01:04.000|Flooding|        101002744429
1|29.59968714|-95.13036693|3614 ALMOND CREEK, HOUSTON TX 77059|2017-09-14 17:38:17.837|2017-09-18 10:05:15.347|2017-09-18 17:38:17.000|Flooding|        101002752532
1|29.59975044|-95.29833993|Intersection 12200 MYKAWA RD&7150 S SAM HOUSTON PKWY E|2017-05-22 10:27:39.837|2017-05-22 14:35:14.417|2017-05-26 10:27:39.000|Flooding|        101002609840
1|29.59981782|-95.20896745|11902 SAGEDOWNE, HOUSTON TX 77089|2017-08-27 04:41:15.700|2017-09-05 13:40:07.233|2017-08-31 04:41:15.000|Flooding|        101002721969
1|29.59984882|-95.12948179|3102 LONG BAY, HOUSTON TX 77059|2017-09-18 09:59:11.330|2017-09-20 08:00:12.063|2017-09-22 09:59:11.000|Flooding|        101002757037
1|29.59984982|-95.21003696|11323 SAGEHAVEN, HOUSTON TX 77089|2017-08-27 10:38:54.247|2017-09-05 13:40:07.210|2017-08-31 10:38:54.000|Flooding|        101002722710
1|29.60018907|-95.21240431|11622 SAGEHOLLOW, HOUSTON TX 77089|2017-08-31 09:50:05.760|2017-09-06 07:10:12.403|2017-09-04 09:50:05.000|Flooding|        101002728736
1|29.60038413|-95.21290511|11619 SAGEHOLLOW, HOUSTON TX 77089|2017-03-27 09:44:33.237|2017-03-28 14:45:05.193|2017-03-31 09:44:33.000|Flooding|        101002546767
1|29.60064118|-95.28635406|Intersection 0 S SAM HOUSTON PKWY E&11396 TELEPHONE RD|2017-01-22 17:29:59.197|2017-01-22 18:29:52.160|2017-01-26 17:29:59.000|Flooding|        101002471168
1|29.60065265|-95.45616079|5101 INGOMAR WAY, HOUSTON TX 77053|2017-09-15 18:37:46.890|2017-09-19 11:20:15.283|2017-09-19 18:37:46.000|Flooding|        101002754707
1|29.60084215|-95.49018814|6910 CASTLEVIEW, HOUSTON TX 77489|2017-09-14 10:44:28.777|2017-09-18 10:30:14.593|2017-09-18 10:44:28.000|Flooding|        101002751461
1|29.60105038|-95.39761898|1607 CARIBE, HOUSTON TX 77047|2017-09-06 08:46:34.313|2017-09-11 08:05:08.363|2017-09-10 08:46:33.000|Flooding|        101002736729
1|29.6010919|-95.21148684|11215 SAGEHAVEN, HOUSTON TX 77089|2017-09-01 16:19:43.557|2017-09-06 11:15:17.927|2017-09-05 16:19:43.000|Flooding|        101002731355
1|29.60138592|-95.23257678|11402 KIRKWYN, HOUSTON TX 77089|2017-08-27 08:00:28.487|2017-09-05 08:10:07.533|2017-08-31 08:00:28.000|Flooding|        101002722277
1|29.60140604|-95.23193835|11414 KIRKWYN, HOUSTON TX 77089|2017-08-27 02:59:07.460|2017-09-05 07:35:11.840|2017-08-31 02:59:07.000|Flooding|        101002721843
1|29.60160657|-95.20610636|11330 SAGEWOOD, HOUSTON TX 77089|2017-08-27 05:17:33.480|2017-09-05 14:00:14.727|2017-08-31 05:17:33.000|Flooding|        101002722021
1|29.60167331|-95.12826032|3931 CROWN RIDGE, HOUSTON TX 77059|2017-09-14 15:42:18.443|2017-09-18 10:05:15.493|2017-09-18 15:42:18.000|Flooding|        101002752274
1|29.60168321|-95.27398671|8138 HALL VIEW, HOUSTON TX 77075|2017-09-01 16:40:13.867|2017-09-06 11:15:17.970|2017-09-05 16:40:13.000|Flooding|        101002731406
1|29.60198079|-95.29401689|7505 S SAM HOUSTON PKWY E, HOUSTON TX 77075|2017-01-22 15:59:29.417|2017-01-24 13:00:05.120|2017-01-26 15:59:29.000|Flooding|        101002471069
1|29.60200422|-95.48197613|15502 ROSE RIDGE, HOUSTON TX 77489|2017-08-26 21:19:24.740|2017-08-30 13:00:13.250|2017-08-30 21:19:24.000|Flooding|        101002721339
1|29.60204698|-95.25419613|Intersection 11144 BRADFORD WAY DR&9200 CARMALEE|2017-08-28 21:35:50.390|2017-09-04 15:25:11.670|2017-09-01 21:35:48.000|Flooding|        101002725602
1|29.60216322|-95.25195408|9242 CARMALEE, HOUSTON TX 77075|2017-08-30 10:53:06.167|2017-09-02 09:15:22.890|2017-09-03 10:53:06.000|Flooding|        101002727353
1|29.60220674|-95.27247297|11227 HALL RIDGE, HOUSTON TX 77075|2017-09-18 08:26:37.943|2017-09-20 08:00:12.353|2017-09-22 08:26:37.000|Flooding|        101002756722
1|29.60228721|-95.25159447|9250 CARMALEE, HOUSTON TX 77075|2017-08-28 17:56:20.997|2017-09-02 09:15:18.860|2017-09-01 17:56:20.000|Flooding|        101002725313
1|29.60229821|-95.27566955|11223 HALL GREENS, HOUSTON TX 77075|2017-09-06 10:10:56.727|2017-09-11 08:15:08.527|2017-09-10 10:10:56.000|Flooding|        101002737000
1|29.60259415|-95.2539079|11135 BRADFORD WAY, HOUSTON TX 77075|2017-08-30 20:09:04.997|2017-09-02 09:15:18.870|2017-09-03 20:09:04.000|Flooding|        101002728310
1|29.60276157|-95.25358093|11130 LINDEN GATE, HOUSTON TX 77075|2017-08-29 14:45:27.007|2017-09-02 09:15:23.187|2017-09-02 14:45:26.000|Flooding|        101002726481
1|29.60290514|-95.25223876|11139 CAYMAN MIST, HOUSTON TX 77075|2017-08-28 14:22:58.290|2017-09-02 13:15:17.340|2017-09-01 14:22:57.000|Flooding|        101002724852
1|29.60296022|-95.27252532|11203 HALL RIDGE, HOUSTON TX 77075|2017-09-15 16:13:26.367|2017-09-20 07:55:11.607|2017-09-19 16:13:26.000|Flooding|        101002754326
1|29.60301516|-95.45883817|5135 REMUS, HOUSTON TX 77053|2017-08-31 07:19:32.190|2017-09-02 09:15:18.673|2017-09-04 07:19:32.000|Flooding|        101002728490
1|29.60302709|-95.27265992|8235 HALL LAKE, HOUSTON TX 77075|2017-09-18 14:18:44.540|2017-09-20 07:55:12.170|2017-09-22 14:18:44.000|Flooding|        101002757770
1|29.60303678|-95.2617958|11107 OPAL GLEN, HOUSTON TX 77075|2017-09-01 14:42:59.357|2017-09-06 11:15:17.727|2017-09-05 14:42:59.000|Flooding|        101002731115
1|29.60344124|-95.26205018|8819 ROUNDBLUFF, HOUSTON TX 77075|2017-08-30 18:19:08.880|2017-09-04 15:20:12.247|2017-09-03 18:19:07.000|Flooding|        101002728186
1|29.60344596|-95.24894131|Intersection 9776 BLACKHAWK BLVD&9400 CARMALEE|2017-08-28 17:42:29.063|2017-09-05 08:50:07.020|2017-09-01 17:42:28.000|Flooding|        101002725293
1|29.60413635|-95.25632164|Intersection 9300 GARDEN BREEZE DR&11000 GOLDEN FERN CT|2017-08-28 14:02:31.743|2017-09-04 14:30:06.767|2017-09-01 14:02:31.000|Flooding|        101002724798
1|29.60419363|-95.25550717|11034 HEATHER TRAIL, HOUSTON TX 77075|2017-08-29 11:37:08.263|2017-09-02 09:15:18.633|2017-09-02 11:37:07.000|Flooding|        101002726255
1|29.60420495|-95.26318886|11027 ROUND DALE, HOUSTON TX 77075|2017-09-20 11:52:54.887|2017-09-22 16:00:26.383|2017-09-24 11:52:54.000|Flooding|        101002762226
1|29.60420654|-95.21891589|10502 SAGEBRIAR, HOUSTON TX 77089|2017-03-29 16:58:06.437|2017-03-30 15:50:07.347|2017-04-02 16:58:06.000|Flooding|        101002551144
1|29.6043431|-95.21970359|10403 SAGEBRIAR, HOUSTON TX 77089|2017-01-02 11:01:45.473|2017-01-03 13:15:04.140|2017-01-06 11:01:45.000|Flooding|        101002445122
1|29.60435044|-95.22055171|11902 KIRKHOLM, HOUSTON TX 77089|2017-06-02 20:24:32.500|2017-06-05 15:40:04.740|2017-06-06 20:24:32.000|Flooding|        101002623261
1|29.60447513|-95.26519604|11030 HEATHER BLUFF, HOUSTON TX 77075|2017-08-30 13:44:02.680|2017-09-04 15:15:11.643|2017-09-03 13:44:01.000|Flooding|        101002727688
1|29.60457418|-95.22032164|Intersection 11900 KIRKHOLM DR&10400 SAGEWICK DR|2017-03-29 17:29:33.783|2017-03-30 15:50:07.347|2017-04-02 17:29:32.000|Flooding|        101002551200
1|29.60481153|-95.27073553|8315 LETTIE, HOUSTON TX 77075|2017-08-27 09:01:44.287|2017-09-01 14:50:21.280|2017-08-31 09:01:43.000|Flooding|        101002722406
1|29.60488094|-95.22037186|10403 SAGEWICK, HOUSTON TX 77089|2017-01-02 09:44:06.437|2017-01-03 13:20:04.247|2017-01-06 09:44:06.000|Flooding|        101002445038
1|29.60508167|-95.25313115|11015 LINDEN GATE, HOUSTON TX 77075|2017-08-28 14:21:15.390|2017-09-04 15:00:11.193|2017-09-01 14:21:15.000|Flooding|        101002724849
1|29.60509379|-95.25117113|11014 MALDEN, HOUSTON TX 77075|2017-08-30 09:22:51.897|2017-09-04 15:15:11.817|2017-09-03 09:22:47.000|Flooding|        101002727186
1|29.60511758|-95.2707414|8314 COASTWAY, HOUSTON TX 77075|2017-08-27 01:25:00.967|2017-09-05 07:40:11.440|2017-08-31 01:25:00.000|Flooding|        101002721739
1|29.60511981|-95.50803149|15307 TRINITY MEADOW, HOUSTON TX 77489|2017-09-03 18:08:30.020|2017-09-03 18:18:26.880|2017-09-07 18:08:29.000|Flooding|        101002733428
1|29.6051506|-95.26870103|8414 COASTWAY, HOUSTON TX 77075|2017-08-30 18:17:46.033|2017-09-12 08:55:14.603|2017-09-03 18:17:45.000|Flooding|        101002728182
1|29.60556064|-95.2732947|8211 COASTWAY, HOUSTON TX 77075|2017-08-27 04:18:10.810|2017-09-05 08:05:06.663|2017-08-31 04:18:10.000|Flooding|        101002721932
1|29.60556651|-95.2723313|8227 COASTWAY, HOUSTON TX 77075|2017-09-18 14:22:58.987|2017-09-20 07:55:12.340|2017-09-22 14:22:58.000|Flooding|        101002757795
1|29.60557241|-95.27186867|8235 COASTWAY, HOUSTON TX 77075|2017-08-28 12:36:08.390|2017-09-05 08:45:06.787|2017-09-01 12:36:07.000|Flooding|        101002724615
1|29.60558648|-95.27074966|8315 COASTWAY, HOUSTON TX 77075|2017-08-27 05:26:42.207|2017-09-05 08:05:06.713|2017-08-31 05:26:41.000|Flooding|        101002722035
1|29.60558922|-95.27052902|8319 COASTWAY, HOUSTON TX 77075|2017-08-27 16:59:28.063|2017-09-05 08:40:13.657|2017-08-31 16:59:27.000|Flooding|        101002723423
1|29.60564997|-95.25834787|9119 GARDEN BREEZE, HOUSTON TX 77075|2017-08-30 13:18:43.740|2017-09-02 09:15:18.673|2017-09-03 13:18:43.000|Flooding|        101002727644
1|29.60579131|-95.1194528|4006 N WATER IRIS, HOUSTON TX 77059|2017-08-27 15:13:37.670|2017-09-04 14:40:11.260|2017-08-31 15:13:37.000|Flooding|        101002723240
1|29.60588109|-95.27141509|8302 GULF TREE, HOUSTON TX 77075|2017-08-27 05:10:45.270|2017-09-01 14:50:20.440|2017-08-31 05:10:45.000|Flooding|        101002722007
1|29.60630768|-95.3536941|4126 LANDSHIRE BEND, HOUSTON TX 77048|2017-08-30 10:57:55.693|2017-09-02 09:15:22.787|2017-09-03 10:57:55.000|Flooding|        101002727362
1|29.60634302|-95.27186443|8231 GULF TREE, HOUSTON TX 77075|2017-08-28 23:01:45.130|2017-09-05 08:50:07.020|2017-09-01 23:01:44.000|Flooding|        101002725670
1|29.60636594|-95.2698742|8331 GULF TREE, HOUSTON TX 77075|2017-09-18 13:15:40.603|2017-09-20 07:55:12.253|2017-09-22 13:15:40.000|Flooding|        101002757551
1|29.60637813|-95.13739752|13511 SCENIC GLADE, HOUSTON TX 77059|2017-08-28 03:20:41.583|2017-09-04 14:45:10.890|2017-09-01 03:20:41.000|Flooding|        101002723887
1|29.60639251|-95.26720647|8439 GULF TREE, HOUSTON TX 77075|2017-09-08 16:40:36.463|2017-09-19 09:05:31.090|2017-09-12 16:40:36.000|Flooding|        101002742426
1|29.60642427|-95.2523374|10939 CAYMAN MIST, HOUSTON TX 77075|2017-09-12 11:12:47.243|2017-09-15 14:25:12.460|2017-09-16 11:12:47.000|Flooding|        101002746812
1|29.6066351|-95.27297104|8210 GULF SPRING, HOUSTON TX 77075|2017-09-05 21:24:57.097|2017-09-08 08:10:09.100|2017-09-09 21:24:56.000|Flooding|        101002736365
1|29.60664968|-95.27164921|8234 GULF SPRING, HOUSTON TX 77075|2017-08-27 17:30:21.737|2017-09-04 14:40:16.387|2017-08-31 17:30:21.000|Flooding|        101002723470
1|29.60672237|-95.40991326|13723 MERIDA, HOUSTON TX 77047|2017-09-26 12:39:32.913|2017-10-11 10:50:14.540|2017-09-30 12:39:32.000|Flooding|        101002770970
1|29.60706681|-95.25153019|10923 FERN TERRACE, HOUSTON TX 77075|2017-08-27 19:55:18.393|2017-09-04 14:40:11.187|2017-08-31 19:55:18.000|Flooding|        101002723620
1|29.60711064|-95.27232289|8223 GULF SPRING, HOUSTON TX 77075|2017-08-27 16:31:44.390|2017-09-04 14:35:11.570|2017-08-31 16:31:44.000|Flooding|        101002723379
1|29.60723134|-95.28387218|10901 TELEPHONE, HOUSTON TX 77075|2017-08-29 04:08:42.077|2017-09-04 15:25:11.717|2017-09-02 04:08:41.000|Flooding|        101002725771
1|29.60752304|-95.44835751|4626 HIGH POINT, HOUSTON TX 77053|2017-09-07 15:08:55.207|2017-09-11 10:15:14.460|2017-09-11 15:08:55.000|Flooding|        101002739690
1|29.60792635|-95.42699619|15107 ALROVER, HOUSTON TX 77053|2017-09-01 09:07:06.743|2017-09-08 06:55:13.840|2017-09-05 09:07:06.000|Flooding|        101002730307
1|29.6083794|-95.27453608|Intersection 10900 ARENDALE ST&8120 SPRINGTIME LN|2017-08-26 08:46:03.160|2017-08-26 14:25:17.377|2017-08-30 08:46:02.000|Flooding|        101002720521
1|29.60857991|-95.27741189|8003 SPRINGTIME, HOUSTON TX 77075|2017-03-29 14:00:19.267|2017-03-30 12:25:07.577|2017-04-02 14:00:19.000|Flooding|        101002550702
1|29.60922441|-95.50532944|14915 CHASERIDGE, HOUSTON TX 77489|2017-09-06 08:31:19.040|2017-09-11 07:55:13.920|2017-09-10 08:31:18.000|Flooding|        101002736671
1|29.60935459|-95.25368131|10806 LINDEN GATE, HOUSTON TX 77075|2017-08-28 09:42:42.337|2017-09-02 09:25:17.027|2017-09-01 09:42:41.000|Flooding|        101002724218
1|29.60946042|-95.48680364|6636 KEATS, HOUSTON TX 77085|2017-08-31 12:01:11.130|2017-09-06 08:10:12.977|2017-09-04 12:01:10.000|Flooding|        101002729064
1|29.60966197|-95.27676474|8014 MISTY VALE, HOUSTON TX 77075|2017-08-30 15:04:07.900|2017-09-05 09:25:11.610|2017-09-03 15:04:07.000|Flooding|        101002727862
1|29.60967446|-95.27588526|8030 MISTY VALE, HOUSTON TX 77075|2017-08-30 18:26:20.910|2017-09-06 06:40:07.720|2017-09-03 18:26:20.000|Flooding|        101002728194
1|29.60993168|-95.25341798|9223 MISTY VALE, HOUSTON TX 77075|2017-08-28 12:32:33.283|2017-09-02 09:15:22.993|2017-09-01 12:32:33.000|Flooding|        101002724596
1|29.60993275|-95.25417235|9207 MISTY VALE, HOUSTON TX 77075|2017-08-29 09:37:26.127|2017-09-02 09:10:17.830|2017-09-02 09:37:25.000|Flooding|        101002726079
1|29.60999064|-95.24964434|9403 MISTY VALE, HOUSTON TX 77075|2017-09-13 17:51:34.780|2017-09-15 14:25:12.460|2017-09-17 17:51:34.000|Flooding|        101002750461
1|29.61013254|-95.27655637|8019 MISTY VALE, HOUSTON TX 77075|2017-08-29 09:39:54.043|2017-09-05 08:55:12.130|2017-09-02 09:39:53.000|Flooding|        101002726083
1|29.61014668|-95.17500538|11140 AEROSPACE, HOUSTON TX 77059|2017-06-09 18:14:33.593|2017-06-10 18:54:47.187|2017-06-13 18:14:33.000|Flooding|        101002631311
1|29.61014856|-95.27545461|8103 MISTY VALE, HOUSTON TX 77075|2017-08-30 08:12:45.253|2017-09-04 13:20:06.870|2017-09-03 08:12:43.000|Flooding|        101002727083
1|29.61015498|-95.27501331|8111 MISTY VALE, HOUSTON TX 77075|2017-08-29 03:16:03.183|2017-09-04 15:10:11.087|2017-09-02 03:16:02.000|Flooding|        101002725753
1|29.61025845|-95.28403454|7748 CECIL, HOUSTON TX 77075|2017-08-29 10:16:35.643|2017-09-02 14:40:22.073|2017-09-02 10:16:35.000|Flooding|        101002726151
1|29.61066265|-95.23022493|10831 BAZIN, HOUSTON TX 77089|2017-08-27 11:45:14.223|2017-09-04 13:15:11.540|2017-08-31 11:45:13.000|Flooding|        101002722835
1|29.61121951|-95.23807535|Intersection 10076 FUQUA ST&9900 KINGSPOINT|2017-09-21 17:21:48.420|2017-09-25 15:30:19.373|2017-09-25 17:21:48.000|Flooding|        101002765077
1|29.61164812|-95.28561732|Intersection 7700 FUQUA&10600 TELEPHONE RD|2017-07-15 18:38:09.147|2017-07-15 21:15:02.343|2017-07-19 18:38:08.000|Flooding|        101002671871
1|29.61164812|-95.28561732|Intersection 7700 FUQUA&10600 TELEPHONE RD|2017-08-26 08:42:45.553|2017-08-26 14:25:17.383|2017-08-30 08:42:45.000|Flooding|        101002720518
1|29.61189315|-95.28087098|7831 FUQUA, HOUSTON TX 77075|2017-10-05 11:36:40.217|2017-10-10 13:50:16.063|2017-10-09 11:36:40.000|Flooding|        101002782549
1|29.61189467|-95.28027375|7853 FUQUA, HOUSTON TX 77075|2017-09-08 08:06:57.720|2017-09-19 08:55:42.020|2017-09-12 08:06:57.000|Flooding|        101002740579
1|29.61199185|-95.30200963|Intersection 6300 FUQUA ST&11600 MYKAWA RD|2017-05-22 10:25:27.900|2017-05-22 14:30:14.497|2017-05-26 10:25:27.000|Flooding|        101002609832
1|29.61328094|-95.28333829|7714 CATALINA, HOUSTON TX 77075|2017-08-31 16:08:57.450|2017-09-06 10:50:13.270|2017-09-04 16:08:57.000|Flooding|        101002729572
1|29.61332891|-95.44589236|Intersection 4500 W FUQUA ST&14700 HIRAM CLARKE RD|2017-07-19 18:07:13.483|2017-07-20 14:00:06.543|2017-07-23 18:07:13.000|Flooding|        101002676918
1|29.61332891|-95.44589236|Intersection 4500 W FUQUA ST&14700 HIRAM CLARKE RD|2017-08-02 16:40:39.737|2017-08-03 12:35:06.577|2017-08-06 16:40:39.000|Flooding|        101002693026
1|29.61404912|-95.24186874|9806 CAFFREY, HOUSTON TX 77075|2017-09-18 15:33:02.953|2017-09-20 07:55:12.333|2017-09-22 15:32:56.000|Flooding|        101002758100
1|29.6151321|-95.41277475|13306 RIDGEWOOD KNOLL, HOUSTON TX 77047|2017-09-04 13:07:15.773|2017-09-08 06:55:13.747|2017-09-08 13:07:15.000|Flooding|        101002734045
1|29.61533396|-95.31622084|5924 STONHAM, HOUSTON TX 77048|2017-09-01 20:31:20.740|2017-09-04 20:30:11.497|2017-09-05 20:31:20.000|Flooding|        101002731695
1|29.6157508|-95.24378135|9614 MANGO, HOUSTON TX 77075|2017-08-27 07:06:30.570|2017-09-02 13:25:13.697|2017-08-31 07:06:29.000|Flooding|        101002722180
1|29.6157717|-95.28314993|7718 FOLKSTONE, HOUSTON TX 77075|2017-08-26 22:34:31.210|2017-09-04 13:55:11.720|2017-08-30 22:34:31.000|Flooding|        101002721475
1|29.61622752|-95.24361918|9619 MANGO, HOUSTON TX 77075|2017-08-26 23:57:42.893|2017-09-02 09:05:19.893|2017-08-30 23:57:42.000|Flooding|        101002721635
1|29.61640643|-95.2633081|8615 WASHAM, HOUSTON TX 77075|2017-09-14 08:41:08.027|2017-09-14 08:41:28.263|2017-09-18 08:41:07.000|Flooding|        101002751001
1|29.61653144|-95.24381341|9626 FONVILLE, HOUSTON TX 77075|2017-09-02 08:35:28.200|2017-09-06 11:15:18.400|2017-09-06 08:35:28.000|Flooding|        101002731901
1|29.61654483|-95.24532805|10350 STOVER, HOUSTON TX 77075|2017-08-27 01:24:45.350|2017-09-02 13:15:17.427|2017-08-31 01:24:43.000|Flooding|        101002721738
1|29.61654529|-95.24286732|9714 FONVILLE, HOUSTON TX 77075|2017-09-07 08:47:29.943|2017-09-11 10:10:09.390|2017-09-11 08:47:29.000|Flooding|        101002738750
1|29.61660962|-95.35531608|Intersection 4100 ALMEDA GENOA RD&13300 CULLEN BLVD|2017-08-29 20:39:12.010|2017-09-02 09:15:22.830|2017-09-02 20:39:10.000|Flooding|        101002726886
1|29.61691557|-95.45048244|4718 DALMATIAN, HOUSTON TX 77045|2017-09-19 13:33:45.260|2017-09-21 07:50:11.967|2017-09-23 13:33:45.000|Flooding|        101002760338
1|29.61813679|-95.22326449|11027 GREEN ARBOR, HOUSTON TX 77089|2017-09-06 13:50:59.997|2017-09-08 07:55:14.140|2017-09-10 13:50:59.000|Flooding|        101002737599
1|29.61816067|-95.19767344|13170 KODY RIDGE, HOUSTON TX 77034|2017-09-06 16:15:01.470|2017-09-08 07:50:13.893|2017-09-10 16:15:01.000|Flooding|        101002737960
1|29.61950799|-95.4723173|5903 SHERINGHAM, HOUSTON TX 77085|2017-09-15 12:46:43.990|2017-09-19 11:15:09.737|2017-09-19 12:46:43.000|Flooding|        101002753625
1|29.62014207|-95.27456763|8121 SWIFTWATER, HOUSTON TX 77075|2017-09-20 11:58:47.240|2017-09-22 16:00:26.910|2017-09-24 11:58:47.000|Flooding|        101002762249
1|29.62025517|-95.28702024|7610 ALMEDA GENOA, HOUSTON TX 77075|2017-09-05 14:15:30.583|2017-09-08 07:25:13.737|2017-09-09 14:15:30.000|Flooding|        101002735549
1|29.62088395|-95.31186685|Intersection 6200 ALMEDA GENOA RD&13000 FOXTON RD|2017-08-26 10:55:53.443|2017-08-26 14:20:12.960|2017-08-30 10:55:53.000|Flooding|        101002720762
1|29.62107691|-95.20078467|Intersection 10100 FREEHILL ST&12900 FUQUA ST|2017-03-29 14:40:50.447|2017-03-30 11:55:23.090|2017-04-02 14:40:50.000|Flooding|        101002550780
1|29.62113993|-95.30148745|6829 ALMEDA GENOA, HOUSTON TX 77075|2017-08-26 23:28:57.887|2017-09-04 15:05:11.500|2017-08-30 23:28:57.000|Flooding|        101002721587
1|29.6212478|-95.38023364|Intersection 12800 FURMAN RD&2700 SKYVIEW DOWNS DR|2017-08-26 23:00:46.753|2017-09-02 17:55:17.810|2017-08-30 23:00:46.000|Flooding|        101002721531
1|29.62185417|-95.49991975|14314 NAT, HOUSTON TX 77085|2017-09-11 07:49:33.630|2017-09-11 07:49:46.547|2017-09-15 07:49:33.000|Flooding|        101002744057
1|29.62197951|-95.23688713|10022 GIL JR, HOUSTON TX 77075|2017-08-27 13:59:56.793|2017-09-02 09:20:17.800|2017-08-31 13:59:55.000|Flooding|        101002723090
1|29.62253477|-95.19755459|Intersection 13100 FUQUA ST&10000 GALVESTON RD&2 GENOA RED B|2017-01-13 07:35:55.480|2017-01-13 16:25:10.800|2017-01-17 07:35:55.000|Flooding|        101002458915
1|29.6231342|-95.21081757|12008 PALMSPRINGS, HOUSTON TX 77034|2017-09-12 08:53:49.677|2017-09-14 13:25:12.627|2017-09-16 08:53:49.000|Flooding|        101002746323
1|29.62328166|-95.2743209|8111 LANHAM, HOUSTON TX 77075|2017-09-11 11:14:00.310|2017-09-15 14:25:12.367|2017-09-15 11:14:00.000|Flooding|        101002744678
1|29.62371778|-95.21950431|11302 PALMBEACH, HOUSTON TX 77034|2017-09-12 08:53:50.517|2017-09-14 14:50:15.600|2017-09-16 08:53:50.000|Flooding|        101002746324
1|29.6237317|-95.20983681|12105 PALMSPRINGS, HOUSTON TX 77034|2017-09-12 08:53:48.880|2017-09-14 13:20:12.817|2017-09-16 08:53:48.000|Flooding|        101002746322
1|29.623762|-95.3525523|12806 GREENSHIRE, HOUSTON TX 77048|2017-09-01 13:14:52.373|2017-09-06 11:15:17.443|2017-09-05 13:14:52.000|Flooding|        101002730917
1|29.62380701|-95.20771759|12217 PALMSPRINGS, HOUSTON TX 77034|2017-09-12 08:51:54.260|2017-09-14 14:15:07.230|2017-09-16 08:51:54.000|Flooding|        101002746317
1|29.62381455|-95.20752991|12221 PALMSPRINGS, HOUSTON TX 77034|2017-09-12 08:51:52.980|2017-09-14 14:35:12.970|2017-09-16 08:51:52.000|Flooding|        101002746316
1|29.62382207|-95.2073424|12225 PALMSPRINGS, HOUSTON TX 77034|2017-09-12 08:51:52.540|2017-09-18 09:20:14.080|2017-09-16 08:51:52.000|Flooding|        101002746315
1|29.62383711|-95.20696778|12233 PALMSPRINGS, HOUSTON TX 77034|2017-09-12 08:50:09.277|2017-09-14 14:35:13.097|2017-09-16 08:50:09.000|Flooding|        101002746305
1|29.62384464|-95.2067801|12237 PALMSPRINGS, HOUSTON TX 77034|2017-09-12 08:50:02.310|2017-09-14 14:35:12.920|2017-09-16 08:50:02.000|Flooding|        101002746304
1|29.6238942|-95.23717088|9914 VICTORIA POINT, HOUSTON TX 77075|2017-09-13 15:20:45.690|2017-09-15 13:45:12.963|2017-09-17 15:20:45.000|Flooding|        101002749972
1|29.62391713|-95.44422689|13940 WRIGLEY, HOUSTON TX 77045|2017-08-26 22:29:42.070|2017-09-02 17:55:12.740|2017-08-30 22:29:41.000|Flooding|        101002721466
1|29.62404294|-95.23489425|10126 VICTORIA FALLS, HOUSTON TX 77075|2017-09-01 11:07:14.443|2017-09-04 13:25:11.867|2017-09-05 11:07:14.000|Flooding|        101002730600
1|29.62405825|-95.21060388|12014 PALMBEACH, HOUSTON TX 77034|2017-09-12 08:55:52.217|2017-09-14 13:25:12.493|2017-09-16 08:55:52.000|Flooding|        101002746330
1|29.62410194|-95.20948477|12114 PALMBEACH, HOUSTON TX 77034|2017-09-12 08:55:56.207|2017-09-14 13:20:12.880|2017-09-16 08:55:56.000|Flooding|        101002746333
1|29.62419285|-95.20717875|12230 PALMBEACH, HOUSTON TX 77034|2017-09-12 09:00:01.747|2017-09-12 09:20:07.267|2017-09-16 09:00:01.000|Flooding|        101002746365
1|29.62420056|-95.20699105|12234 PALMBEACH, HOUSTON TX 77034|2017-09-12 09:00:01.253|2017-09-12 09:20:07.243|2017-09-16 09:00:01.000|Flooding|        101002746364
1|29.62426994|-95.20530118|12330 PALMBEACH, HOUSTON TX 77034|2017-09-12 11:47:52.397|2017-09-14 13:25:12.683|2017-09-16 11:47:52.000|Flooding|        101002746945
1|29.62427765|-95.20511348|12334 PALMBEACH, HOUSTON TX 77034|2017-09-12 11:47:52.840|2017-09-14 13:25:12.497|2017-09-16 11:47:52.000|Flooding|        101002746946
1|29.62432002|-95.20390254|12410 PALMBEACH, HOUSTON TX 77034|2017-09-12 11:48:01.370|2017-09-19 09:05:32.480|2017-09-16 11:48:01.000|Flooding|        101002746949
1|29.62433503|-95.20351456|12418 PALMBEACH, HOUSTON TX 77034|2017-09-12 09:07:57.410|2017-09-19 09:05:32.570|2017-09-16 09:07:57.000|Flooding|        101002746394
1|29.62437257|-95.20254426|12438 PALMBEACH, HOUSTON TX 77034|2017-09-12 09:09:59.397|2017-09-19 09:05:32.753|2017-09-16 09:09:59.000|Flooding|        101002746407
1|29.62438024|-95.20234584|12442 PALMBEACH, HOUSTON TX 77034|2017-09-12 11:48:01.797|2017-09-19 09:05:32.357|2017-09-16 11:48:01.000|Flooding|        101002746950
1|29.62460738|-95.21063077|12013 PALMBEACH, HOUSTON TX 77034|2017-09-12 08:55:55.270|2017-09-14 13:25:12.567|2017-09-16 08:55:55.000|Flooding|        101002746332
1|29.62465182|-95.20951761|12113 PALMBEACH, HOUSTON TX 77034|2017-09-12 08:55:52.830|2017-09-19 09:05:32.280|2017-09-16 08:55:52.000|Flooding|        101002746331
1|29.62466662|-95.20914692|12121 PALMBEACH, HOUSTON TX 77034|2017-09-12 08:58:27.850|2017-09-19 09:05:31.397|2017-09-16 08:58:27.000|Flooding|        101002746355
1|29.62469916|-95.20833468|12205 PALMBEACH, HOUSTON TX 77034|2017-09-12 08:58:36.500|2017-09-19 09:05:33.147|2017-09-16 08:58:36.000|Flooding|        101002746359
1|29.62472236|-95.20777096|12217 PALMBEACH, HOUSTON TX 77034|2017-09-12 08:58:37.540|2017-09-12 09:10:10.140|2017-09-16 08:58:37.000|Flooding|        101002746360
1|29.62472236|-95.20777096|12217 PALMBEACH, HOUSTON TX 77034|2017-09-12 08:58:39.430|2017-09-12 09:02:44.327|2017-09-16 08:58:39.000|Flooding|        101002746361
1|29.62481512|-95.20551623|12325 PALMBEACH, HOUSTON TX 77034|2017-09-12 11:47:55.357|2017-09-14 13:25:12.497|2017-09-16 11:47:55.000|Flooding|        101002746947
1|29.62483829|-95.20495272|12337 PALMBEACH, HOUSTON TX 77034|2017-09-12 11:47:55.867|2017-09-19 09:05:31.267|2017-09-16 11:47:55.000|Flooding|        101002746948
1|29.62486126|-95.20431866|12401 PALMBEACH, HOUSTON TX 77034|2017-09-12 09:03:52.350|2017-09-19 09:05:33.323|2017-09-16 09:03:52.000|Flooding|        101002746378
1|29.62486866|-95.20411784|12405 PALMBEACH, HOUSTON TX 77034|2017-09-12 09:05:53.150|2017-09-19 09:05:34.917|2017-09-16 09:05:53.000|Flooding|        101002746386
1|29.6248758|-95.20392439|12409 PALMBEACH, HOUSTON TX 77034|2017-09-12 09:05:55.070|2017-09-19 09:10:26.683|2017-09-16 09:05:54.000|Flooding|        101002746387
1|29.62488293|-95.2037309|12413 PALMBEACH, HOUSTON TX 77034|2017-09-12 09:07:52.390|2017-09-19 09:05:32.570|2017-09-16 09:07:52.000|Flooding|        101002746393
1|29.62489006|-95.20353743|12417 PALMBEACH, HOUSTON TX 77034|2017-09-12 09:07:51.947|2017-09-19 09:05:31.900|2017-09-16 09:07:51.000|Flooding|        101002746392
1|29.6249043|-95.20315104|12425 PALMBEACH, HOUSTON TX 77034|2017-09-12 09:09:57.427|2017-09-19 09:05:31.330|2017-09-16 09:09:57.000|Flooding|        101002746405
1|29.62491856|-95.20276411|12433 PALMBEACH, HOUSTON TX 77034|2017-09-12 09:09:57.963|2017-09-19 09:05:31.503|2017-09-16 09:09:57.000|Flooding|        101002746406
1|29.62492569|-95.20257063|12437 PALMBEACH, HOUSTON TX 77034|2017-09-12 11:48:04.630|2017-09-19 09:05:31.843|2017-09-16 11:48:04.000|Flooding|        101002746952
1|29.62493305|-95.20237117|12441 PALMBEACH, HOUSTON TX 77034|2017-09-12 11:48:04.230|2017-09-19 09:05:32.753|2017-09-16 11:48:04.000|Flooding|        101002746951
1|29.62498738|-95.20045533|9602 GALVESTON, HOUSTON TX 77034|2017-09-12 14:31:52.220|2017-09-19 09:05:34.733|2017-09-16 14:31:52.000|Flooding|        101002747525
1|29.62498738|-95.20045533|9602 GALVESTON, HOUSTON TX 77034|2017-09-12 14:31:54.357|2017-09-12 14:35:42.827|2017-09-16 14:31:54.000|Flooding|        101002747527
1|29.62504856|-95.20855342|12202 PALMFREE, HOUSTON TX 77034|2017-09-12 14:43:53.567|2017-09-19 09:05:35.843|2017-09-16 14:43:53.000|Flooding|        101002747582
1|29.62507193|-95.20797631|12214 PALMFREE, HOUSTON TX 77034|2017-09-12 14:41:52.003|2017-09-19 09:05:34.620|2017-09-16 14:41:51.000|Flooding|        101002747567
1|29.62509474|-95.20741264|12226 PALMFREE, HOUSTON TX 77034|2017-09-12 14:40:11.193|2017-09-19 09:05:33.853|2017-09-16 14:40:11.000|Flooding|        101002747563
1|29.62510234|-95.20722494|12230 PALMFREE, HOUSTON TX 77034|2017-09-12 14:40:07.657|2017-09-19 09:05:34.450|2017-09-16 14:40:07.000|Flooding|        101002747561
1|29.62510993|-95.20703742|12234 PALMFREE, HOUSTON TX 77034|2017-09-12 14:37:51.297|2017-09-19 09:05:33.587|2017-09-16 14:37:50.000|Flooding|        101002747553
1|29.62511754|-95.20684941|12238 PALMFREE, HOUSTON TX 77034|2017-09-06 09:12:22.253|2017-09-08 13:35:14.070|2017-09-10 09:12:22.000|Flooding|        101002736814
1|29.62511754|-95.20684941|12238 PALMFREE, HOUSTON TX 77034|2017-09-12 14:37:55.483|2017-09-19 09:05:34.320|2017-09-16 14:37:54.000|Flooding|        101002747556
1|29.62512515|-95.20666126|12302 PALMFREE, HOUSTON TX 77034|2017-09-12 14:35:57.370|2017-09-19 09:05:34.450|2017-09-16 14:35:57.000|Flooding|        101002747545
1|29.62513275|-95.20647359|12306 PALMFREE, HOUSTON TX 77034|2017-09-12 14:35:52.937|2017-09-19 09:05:33.503|2017-09-16 14:35:52.000|Flooding|        101002747543
1|29.62514034|-95.20628611|12310 PALMFREE, HOUSTON TX 77034|2017-09-12 14:33:53.047|2017-09-19 09:05:34.450|2017-09-16 14:33:52.000|Flooding|        101002747537
1|29.62514797|-95.20609754|12314 PALMFREE, HOUSTON TX 77034|2017-09-12 14:33:50.630|2017-09-19 09:05:34.733|2017-09-16 14:33:50.000|Flooding|        101002747536
1|29.62515562|-95.20590852|12318 PALMFREE, HOUSTON TX 77034|2017-09-12 14:32:01.130|2017-09-19 09:05:33.503|2017-09-16 14:32:00.000|Flooding|        101002747528
1|29.62517836|-95.20534648|12330 PALMFREE, HOUSTON TX 77034|2017-09-12 14:30:19.550|2017-09-19 09:05:34.680|2017-09-16 14:30:19.000|Flooding|        101002747517
1|29.62518591|-95.2051599|12334 PALMFREE, HOUSTON TX 77034|2017-09-12 14:30:00.923|2017-09-19 09:05:34.063|2017-09-16 14:30:00.000|Flooding|        101002747513
1|29.62519357|-95.20497057|12338 PALMFREE, HOUSTON TX 77034|2017-09-12 14:29:58.083|2017-09-19 09:05:34.267|2017-09-16 14:29:57.000|Flooding|        101002747511
1|29.62522374|-95.2041338|12406 PALMFREE, HOUSTON TX 77034|2017-09-12 14:28:21.627|2017-09-19 09:05:33.797|2017-09-16 14:28:21.000|Flooding|        101002747502
1|29.62523138|-95.20394068|12410 PALMFREE, HOUSTON TX 77034|2017-09-12 14:28:14.440|2017-09-19 09:05:34.450|2017-09-16 14:28:14.000|Flooding|        101002747501
1|29.62524665|-95.20355441|12418 PALMFREE, HOUSTON TX 77034|2017-09-12 14:25:49.643|2017-09-19 09:05:33.960|2017-09-16 14:25:49.000|Flooding|        101002747489
1|29.62525428|-95.20336148|12422 PALMFREE, HOUSTON TX 77034|2017-09-12 14:23:58.090|2017-09-19 09:05:33.957|2017-09-16 14:23:57.000|Flooding|        101002747480
1|29.62526191|-95.20316836|12426 PALMFREE, HOUSTON TX 77034|2017-09-12 14:23:54.843|2017-09-19 09:05:33.073|2017-09-16 14:23:54.000|Flooding|        101002747477
1|29.62526955|-95.20297524|12430 PALMFREE, HOUSTON TX 77034|2017-09-12 14:21:51.800|2017-09-19 09:05:33.717|2017-09-16 14:21:51.000|Flooding|        101002747459
1|29.62527718|-95.20278211|12434 PALMFREE, HOUSTON TX 77034|2017-09-12 14:21:52.280|2017-09-19 09:05:33.717|2017-09-16 14:21:51.000|Flooding|        101002747460
1|29.62528482|-95.20258897|12438 PALMFREE, HOUSTON TX 77034|2017-09-12 14:20:00.650|2017-09-19 09:05:33.513|2017-09-16 14:20:00.000|Flooding|        101002747453
1|29.62553593|-95.32391366|Intersection 12600 MARTINDALE RD&5600 E OREM DR|2017-03-05 22:01:11.773|2017-03-06 10:25:03.480|2017-03-09 22:01:11.000|Flooding|        101002521737
1|29.62560114|-95.20858379|12201 PALMFREE, HOUSTON TX 77034|2017-09-12 14:43:53.023|2017-09-19 09:05:34.970|2017-09-16 14:43:52.000|Flooding|        101002747581
1|29.62561595|-95.20821407|12209 PALMFREE, HOUSTON TX 77034|2017-09-12 14:43:50.470|2017-09-19 09:05:35.120|2017-09-16 14:43:49.000|Flooding|        101002747580
1|29.62562312|-95.20803512|12213 PALMFREE, HOUSTON TX 77034|2017-09-12 14:41:55.577|2017-09-19 09:05:35.180|2017-09-16 14:41:55.000|Flooding|        101002747570
1|29.62563754|-95.2076752|12221 PALMFREE, HOUSTON TX 77034|2017-09-12 14:41:52.530|2017-09-19 09:05:35.073|2017-09-16 14:41:52.000|Flooding|        101002747568
1|29.62563754|-95.2076752|12221 PALMFREE, HOUSTON TX 77034|2017-09-12 14:41:54.940|2017-09-12 14:43:46.437|2017-09-16 14:41:54.000|Flooding|        101002747569
1|29.62565192|-95.20731634|12229 PALMFREE, HOUSTON TX 77034|2017-09-12 14:37:50.857|2017-09-19 09:05:34.320|2017-09-16 14:37:50.000|Flooding|        101002747552
1|29.62565965|-95.20712354|12233 PALMFREE, HOUSTON TX 77034|2017-09-12 14:37:54.023|2017-09-19 09:05:34.320|2017-09-16 14:37:53.000|Flooding|        101002747554
1|29.62565965|-95.20712354|12233 PALMFREE, HOUSTON TX 77034|2017-09-12 14:40:08.033|2017-09-12 14:42:09.813|2017-09-16 14:40:07.000|Flooding|        101002747562
1|29.62567415|-95.20669997|12301 PALMFREE, HOUSTON TX 77034|2017-09-12 14:35:50.970|2017-09-19 09:05:34.320|2017-09-16 14:35:50.000|Flooding|        101002747542
1|29.62568197|-95.2065034|12305 PALMFREE, HOUSTON TX 77034|2017-09-12 14:35:53.660|2017-09-19 09:05:33.717|2017-09-16 14:35:53.000|Flooding|        101002747544
1|29.62569699|-95.20612612|12313 PALMFREE, HOUSTON TX 77034|2017-09-12 14:33:50.127|2017-09-19 09:05:34.743|2017-09-16 14:33:49.000|Flooding|        101002747535
1|29.62570451|-95.2059373|12317 PALMFREE, HOUSTON TX 77034|2017-09-12 14:33:53.630|2017-09-19 09:05:34.397|2017-09-16 14:33:53.000|Flooding|        101002747538
1|29.62571953|-95.20556001|12325 PALMFREE, HOUSTON TX 77034|2017-09-12 14:31:51.407|2017-09-19 09:05:33.900|2017-09-16 14:31:51.000|Flooding|        101002747524
1|29.62571953|-95.20556001|12325 PALMFREE, HOUSTON TX 77034|2017-09-12 14:31:53.500|2017-09-12 14:35:47.250|2017-09-16 14:31:53.000|Flooding|        101002747526
1|29.62572704|-95.20537136|12329 PALMFREE, HOUSTON TX 77034|2017-09-12 14:29:58.550|2017-09-19 09:05:33.717|2017-09-16 14:29:58.000|Flooding|        101002747512
1|29.62573455|-95.20518272|12333 PALMFREE, HOUSTON TX 77034|2017-09-12 14:30:01.673|2017-09-19 09:05:34.210|2017-09-16 14:30:01.000|Flooding|        101002747514
1|29.62574206|-95.20499407|12337 PALMFREE, HOUSTON TX 77034|2017-09-12 14:28:22.007|2017-09-19 09:05:33.500|2017-09-16 14:28:21.000|Flooding|        101002747503
1|29.62576822|-95.20413974|12405 PALMFREE, HOUSTON TX 77034|2017-09-12 14:28:11.520|2017-09-19 09:05:34.527|2017-09-16 14:28:10.000|Flooding|        101002747499
1|29.62577553|-95.20394942|12409 PALMFREE, HOUSTON TX 77034|2017-09-12 14:28:13.460|2017-09-19 09:05:33.377|2017-09-16 14:28:13.000|Flooding|        101002747500
1|29.62578281|-95.20375999|12413 PALMFREE, HOUSTON TX 77034|2017-09-12 14:25:52.087|2017-09-19 09:05:33.963|2017-09-16 14:25:51.000|Flooding|        101002747490
1|29.62579009|-95.20357081|12417 PALMFREE, HOUSTON TX 77034|2017-09-12 14:25:49.143|2017-09-19 09:05:33.427|2017-09-16 14:25:49.000|Flooding|        101002747488
1|29.62579738|-95.20338093|12421 PALMFREE, HOUSTON TX 77034|2017-09-12 14:24:04.133|2017-09-19 09:05:33.960|2017-09-16 14:24:04.000|Flooding|        101002747482
1|29.62580473|-95.2031898|12425 PALMFREE, HOUSTON TX 77034|2017-09-12 14:23:55.343|2017-09-19 09:05:33.503|2017-09-16 14:23:54.000|Flooding|        101002747478
1|29.62581201|-95.20300049|12429 PALMFREE, HOUSTON TX 77034|2017-09-12 14:21:54.943|2017-09-19 09:05:33.260|2017-09-16 14:21:54.000|Flooding|        101002747461
1|29.62581926|-95.20281176|12433 PALMFREE, HOUSTON TX 77034|2017-09-12 14:21:55.573|2017-09-19 09:05:35.020|2017-09-16 14:21:55.000|Flooding|        101002747462
1|29.62582652|-95.20262297|12437 PALMFREE, HOUSTON TX 77034|2017-09-12 14:20:00.230|2017-09-19 09:05:32.867|2017-09-16 14:20:00.000|Flooding|        101002747452
1|29.62586549|-95.21087726|12010 PALMWAY, HOUSTON TX 77034|2017-09-12 14:43:58.750|2017-09-19 09:05:34.733|2017-09-16 14:43:58.000|Flooding|        101002747583
1|29.62587975|-95.21050515|12018 PALMWAY, HOUSTON TX 77034|2017-09-12 14:45:57.390|2017-09-19 09:05:35.233|2017-09-16 14:45:57.000|Flooding|        101002747591
1|29.62590114|-95.20994697|12106 PALMWAY, HOUSTON TX 77034|2017-09-12 14:45:54.593|2017-09-19 09:05:35.300|2017-09-16 14:45:54.000|Flooding|        101002747589
1|29.62590827|-95.20976089|12110 PALMWAY, HOUSTON TX 77034|2017-09-12 14:45:56.613|2017-09-19 09:05:35.020|2017-09-16 14:45:56.000|Flooding|        101002747590
1|29.62592254|-95.20938842|12118 PALMWAY, HOUSTON TX 77034|2017-09-12 14:45:54.177|2017-09-19 09:05:35.020|2017-09-16 14:45:54.000|Flooding|        101002747588
1|29.62592966|-95.20920253|12122 PALMWAY, HOUSTON TX 77034|2017-09-12 14:47:59.153|2017-09-19 09:10:27.090|2017-09-16 14:47:59.000|Flooding|        101002747598
1|29.62595543|-95.2086024|12202 PALMWAY, HOUSTON TX 77034|2017-09-12 14:47:55.077|2017-09-19 09:10:27.470|2017-09-16 14:47:54.000|Flooding|        101002747597
1|29.62595543|-95.2086024|12202 PALMWAY, HOUSTON TX 77034|2017-09-12 14:47:59.657|2017-09-12 14:49:10.103|2017-09-16 14:47:59.000|Flooding|        101002747599
1|29.62597127|-95.20823191|12210 PALMWAY, HOUSTON TX 77034|2017-09-12 14:49:59.950|2017-09-19 09:10:27.140|2017-09-16 14:49:59.000|Flooding|        101002747605
1|29.62597895|-95.20805311|12214 PALMWAY, HOUSTON TX 77034|2017-09-12 14:51:56.487|2017-09-19 09:10:27.517|2017-09-16 14:51:56.000|Flooding|        101002747616
1|29.62597895|-95.20805311|12214 PALMWAY, HOUSTON TX 77034|2017-09-18 14:40:07.380|2017-09-19 09:15:35.440|2017-09-22 14:40:07.000|Flooding|        101002757860
1|29.62598664|-95.20787412|12218 PALMWAY, HOUSTON TX 77034|2017-09-12 14:51:53.033|2017-09-19 09:10:27.203|2017-09-16 14:51:52.000|Flooding|        101002747613
1|29.62599437|-95.20769421|12222 PALMWAY, HOUSTON TX 77034|2017-09-12 14:53:56.120|2017-09-19 09:10:27.520|2017-09-16 14:53:55.000|Flooding|        101002747625
1|29.62600206|-95.2075152|12226 PALMWAY, HOUSTON TX 77034|2017-09-12 14:53:53.633|2017-09-19 09:10:27.517|2017-09-16 14:53:53.000|Flooding|        101002747624
1|29.62600977|-95.20733585|12230 PALMWAY, HOUSTON TX 77034|2017-08-26 22:53:21.010|2017-09-04 16:25:06.167|2017-08-30 22:53:20.000|Flooding|        101002721521
1|29.62600977|-95.20733585|12230 PALMWAY, HOUSTON TX 77034|2017-09-12 14:55:51.800|2017-09-19 09:10:27.517|2017-09-16 14:55:51.000|Flooding|        101002747628
1|29.62603187|-95.20671824|12302 PALMWAY, HOUSTON TX 77034|2017-09-12 15:07:51.603|2017-09-19 09:10:27.717|2017-09-16 15:07:51.000|Flooding|        101002747670
1|29.62603971|-95.20651998|12306 PALMWAY, HOUSTON TX 77034|2017-09-12 15:10:06.767|2017-09-19 09:10:27.770|2017-09-16 15:10:06.000|Flooding|        101002747676
1|29.62604717|-95.20633133|12310 PALMWAY, HOUSTON TX 77034|2017-09-12 15:10:10.480|2017-09-19 09:10:27.993|2017-09-16 15:10:10.000|Flooding|        101002747678
1|29.62605464|-95.2061425|12314 PALMWAY, HOUSTON TX 77034|2017-09-12 15:10:16.100|2017-09-19 09:10:28.170|2017-09-16 15:10:16.000|Flooding|        101002747680
1|29.62606211|-95.20595349|12318 PALMWAY, HOUSTON TX 77034|2017-09-12 15:11:56.763|2017-09-19 09:10:28.173|2017-09-16 15:11:56.000|Flooding|        101002747688
1|29.62606957|-95.20576484|12322 PALMWAY, HOUSTON TX 77034|2017-09-12 15:11:54.173|2017-09-19 09:10:28.113|2017-09-16 15:11:54.000|Flooding|        101002747686
1|29.62607702|-95.2055762|12326 PALMWAY, HOUSTON TX 77034|2017-09-12 15:13:52.220|2017-09-19 09:10:28.470|2017-09-16 15:13:51.000|Flooding|        101002747701
1|29.62608448|-95.20538755|12330 PALMWAY, HOUSTON TX 77034|2017-09-12 15:13:54.710|2017-09-19 09:10:28.800|2017-09-16 15:13:54.000|Flooding|        101002747702
1|29.62609194|-95.2051989|12334 PALMWAY, HOUSTON TX 77034|2017-09-12 15:14:01.667|2017-09-19 09:10:28.520|2017-09-16 15:14:01.000|Flooding|        101002747705
1|29.6260994|-95.20501025|12338 PALMWAY, HOUSTON TX 77034|2017-09-12 15:15:53.213|2017-09-19 09:10:28.423|2017-09-16 15:15:53.000|Flooding|        101002747710
1|29.62612168|-95.20435248|12402 PALMWAY, HOUSTON TX 77034|2017-09-12 15:17:55.860|2017-09-19 09:10:28.860|2017-09-16 15:17:55.000|Flooding|        101002747723
1|29.62612823|-95.20415544|12406 PALMWAY, HOUSTON TX 77034|2017-09-12 15:17:54.530|2017-09-19 09:10:28.647|2017-09-16 15:17:54.000|Flooding|        101002747722
1|29.62613453|-95.20396558|12410 PALMWAY, HOUSTON TX 77034|2017-09-12 15:20:01.630|2017-09-19 09:10:28.903|2017-09-16 15:20:01.000|Flooding|        101002747737
1|29.62613737|-95.34678209|12130 GLENHOLLOW, HOUSTON TX 77048|2017-08-26 22:44:51.830|2017-09-06 08:35:13.390|2017-08-30 22:44:51.000|Flooding|        101002721500
1|29.62613737|-95.34678209|12130 GLENHOLLOW, HOUSTON TX 77048|2017-08-27 00:10:28.297|2017-08-27 00:12:30.747|2017-08-31 00:10:27.000|Flooding|        101002721660
1|29.62614081|-95.2037762|12414 PALMWAY, HOUSTON TX 77034|2017-09-12 15:20:02.077|2017-09-19 09:10:29.050|2017-09-16 15:20:01.000|Flooding|        101002747738
1|29.6261471|-95.20358669|12418 PALMWAY, HOUSTON TX 77034|2017-09-12 15:20:15.180|2017-09-19 09:10:30.120|2017-09-16 15:20:14.000|Flooding|        101002747744
1|29.62615341|-95.2033967|12422 PALMWAY, HOUSTON TX 77034|2017-09-12 15:21:55.347|2017-09-19 09:10:30.760|2017-09-16 15:21:54.000|Flooding|        101002747751
1|29.62615973|-95.20320633|12426 PALMWAY, HOUSTON TX 77034|2017-09-12 15:23:56.460|2017-09-19 09:10:30.377|2017-09-16 15:23:56.000|Flooding|        101002747765
1|29.62616621|-95.20301724|12430 PALMWAY, HOUSTON TX 77034|2017-09-12 15:21:54.960|2017-09-19 09:10:30.277|2017-09-16 15:21:54.000|Flooding|        101002747750
1|29.62617306|-95.20282781|12434 PALMWAY, HOUSTON TX 77034|2017-09-12 15:23:54.997|2017-09-19 09:10:30.763|2017-09-16 15:23:54.000|Flooding|        101002747763
1|29.6263091|-95.34678386|12126 GLENHOLLOW, HOUSTON TX 77048|2017-08-26 22:58:46.757|2017-09-02 17:55:13.210|2017-08-30 22:58:46.000|Flooding|        101002721527
1|29.62648212|-95.20923728|12121 PALMWAY, HOUSTON TX 77034|2017-09-12 14:46:02.747|2017-09-19 09:05:35.353|2017-09-16 14:46:02.000|Flooding|        101002747592
1|29.62650787|-95.2086331|12201 PALMWAY, HOUSTON TX 77034|2017-09-12 14:47:52.967|2017-09-19 09:05:35.417|2017-09-16 14:47:52.000|Flooding|        101002747596
1|29.62651558|-95.20844178|12205 PALMWAY, HOUSTON TX 77034|2017-09-18 14:40:06.893|2017-09-19 09:15:35.310|2017-09-22 14:40:06.000|Flooding|        101002757859
1|29.62652271|-95.20826189|12209 PALMWAY, HOUSTON TX 77034|2017-09-12 14:50:00.360|2017-09-19 09:10:27.030|2017-09-16 14:50:00.000|Flooding|        101002747606
1|29.62652983|-95.20808214|12213 PALMWAY, HOUSTON TX 77034|2017-09-12 14:51:53.473|2017-09-19 09:10:27.310|2017-09-16 14:51:52.000|Flooding|        101002747614
1|29.62653696|-95.20790236|12217 PALMWAY, HOUSTON TX 77034|2017-09-12 14:51:56.057|2017-09-19 09:10:27.517|2017-09-16 14:51:55.000|Flooding|        101002747615
1|29.62654408|-95.2077226|12221 PALMWAY, HOUSTON TX 77034|2017-09-12 14:53:56.813|2017-09-19 09:10:27.517|2017-09-16 14:53:56.000|Flooding|        101002747626
1|29.6265512|-95.20754284|12225 PALMWAY, HOUSTON TX 77034|2017-09-12 14:53:53.220|2017-09-19 09:10:27.520|2017-09-16 14:53:53.000|Flooding|        101002747623
1|29.62655833|-95.2073629|12229 PALMWAY, HOUSTON TX 77034|2017-09-12 14:55:54.750|2017-09-19 09:10:27.770|2017-09-16 14:55:54.000|Flooding|        101002747630
1|29.62656591|-95.20717163|12233 PALMWAY, HOUSTON TX 77034|2017-09-12 14:55:52.277|2017-09-19 09:10:27.657|2017-09-16 14:55:51.000|Flooding|        101002747629
1|29.62656591|-95.20717163|12233 PALMWAY, HOUSTON TX 77034|2017-09-12 14:57:50.290|2017-09-12 14:58:07.503|2017-09-16 14:57:50.000|Flooding|        101002747635
1|29.62658772|-95.51754412|Intersection 15200 MAIN ST&9052 S SAM HOUSTON PKWY W|2017-08-11 19:21:17.257|2017-08-14 06:50:18.190|2017-08-15 19:21:17.000|Flooding|        101002704319
1|29.62658772|-95.51754412|Intersection 15200 MAIN ST&9052 S SAM HOUSTON PKWY W|2017-09-28 17:08:52.703|2017-10-11 13:30:15.577|2017-10-02 17:08:52.000|Flooding|        101002774947
1|29.62658979|-95.20655333|12305 PALMWAY, HOUSTON TX 77034|2017-09-12 15:07:52.067|2017-09-19 09:10:27.600|2017-09-16 15:07:51.000|Flooding|        101002747671
1|29.62659702|-95.20636709|12309 PALMWAY, HOUSTON TX 77034|2017-09-12 15:10:10.890|2017-09-19 09:10:27.873|2017-09-16 15:10:10.000|Flooding|        101002747679
1|29.62660424|-95.2061812|12313 PALMWAY, HOUSTON TX 77034|2017-09-12 15:10:07.223|2017-09-19 09:10:27.920|2017-09-16 15:10:06.000|Flooding|        101002747677
1|29.62661146|-95.20599533|12317 PALMWAY, HOUSTON TX 77034|2017-09-12 15:10:16.487|2017-09-19 09:10:27.823|2017-09-16 15:10:16.000|Flooding|        101002747681
1|29.62661868|-95.20580924|12321 PALMWAY, HOUSTON TX 77034|2017-09-12 15:11:54.567|2017-09-19 09:10:28.343|2017-09-16 15:11:54.000|Flooding|        101002747687
1|29.6266259|-95.20562335|12325 PALMWAY, HOUSTON TX 77034|2017-09-12 15:12:01.790|2017-09-19 09:10:28.650|2017-09-16 15:12:01.000|Flooding|        101002747690
1|29.62663313|-95.2054371|12329 PALMWAY, HOUSTON TX 77034|2017-09-12 15:13:55.257|2017-09-19 09:10:28.520|2017-09-16 15:13:55.000|Flooding|        101002747703
1|29.62664034|-95.20525123|12333 PALMWAY, HOUSTON TX 77034|2017-09-12 15:13:51.780|2017-09-19 09:10:28.257|2017-09-16 15:13:51.000|Flooding|        101002747700
1|29.62664756|-95.20506534|12337 PALMWAY, HOUSTON TX 77034|2017-09-12 15:15:56.523|2017-09-19 09:10:28.650|2017-09-16 15:15:56.000|Flooding|        101002747713
1|29.62665478|-95.20487926|12341 PALMWAY, HOUSTON TX 77034|2017-09-12 15:15:55.987|2017-09-19 09:10:28.733|2017-09-16 15:15:55.000|Flooding|        101002747712
1|29.62666199|-95.20469335|12345 PALMWAY, HOUSTON TX 77034|2017-09-12 15:15:53.630|2017-09-19 09:10:28.657|2017-09-16 15:15:53.000|Flooding|        101002747711
1|29.62666899|-95.20450709|12401 PALMWAY, HOUSTON TX 77034|2017-09-12 15:16:02.910|2017-09-19 09:10:28.520|2017-09-16 15:16:02.000|Flooding|        101002747715
1|29.62667591|-95.20432129|12405 PALMWAY, HOUSTON TX 77034|2017-09-12 15:17:57.700|2017-09-19 09:10:28.590|2017-09-16 15:17:57.000|Flooding|        101002747724
1|29.62668285|-95.20413498|12409 PALMWAY, HOUSTON TX 77034|2017-09-12 15:18:05.913|2017-09-19 09:10:30.830|2017-09-16 15:18:05.000|Flooding|        101002747726
1|29.62668977|-95.2039492|12413 PALMWAY, HOUSTON TX 77034|2017-09-12 15:20:04.850|2017-09-19 09:10:28.853|2017-09-16 15:20:04.000|Flooding|        101002747740
1|29.62669669|-95.20376329|12417 PALMWAY, HOUSTON TX 77034|2017-09-12 15:20:14.813|2017-09-19 09:10:28.970|2017-09-16 15:20:14.000|Flooding|        101002747743
1|29.62670363|-95.20357703|12421 PALMWAY, HOUSTON TX 77034|2017-09-12 15:21:57.847|2017-09-19 09:10:30.193|2017-09-16 15:21:57.000|Flooding|        101002747752
1|29.62671085|-95.20338312|12425 PALMWAY, HOUSTON TX 77034|2017-09-12 15:23:55.410|2017-09-19 09:10:30.470|2017-09-16 15:23:54.000|Flooding|        101002747764
1|29.62675339|-95.21129952|12002 DUMAS, HOUSTON TX 77034|2017-09-11 18:23:02.520|2017-09-12 11:55:12.420|2017-09-15 18:23:02.000|Flooding|        101002745816
1|29.62675339|-95.21129952|12002 DUMAS, HOUSTON TX 77034|2017-09-12 15:57:49.670|2017-09-19 09:10:32.827|2017-09-16 15:57:49.000|Flooding|        101002747936
1|29.62679238|-95.21037134|12022 DUMAS, HOUSTON TX 77034|2017-09-12 15:57:52.100|2017-09-19 09:10:32.583|2017-09-16 15:57:51.000|Flooding|        101002747938
1|29.62686335|-95.20865253|12202 DUMAS, HOUSTON TX 77034|2017-09-12 15:55:53.777|2017-09-19 09:10:32.473|2017-09-16 15:55:53.000|Flooding|        101002747931
1|29.62687028|-95.2084614|12206 DUMAS, HOUSTON TX 77034|2017-09-12 15:55:50.877|2017-09-19 09:10:32.770|2017-09-16 15:55:50.000|Flooding|        101002747929
1|29.62689776|-95.20774092|12222 DUMAS, HOUSTON TX 77034|2017-09-12 15:53:52.323|2017-09-19 09:10:32.237|2017-09-16 15:53:51.000|Flooding|        101002747912
1|29.62690462|-95.20756102|12226 DUMAS, HOUSTON TX 77034|2017-09-12 15:51:52.737|2017-09-19 09:10:32.173|2017-09-16 15:51:52.000|Flooding|        101002747905
1|29.62691149|-95.20738092|12230 DUMAS, HOUSTON TX 77034|2017-09-12 15:51:55.300|2017-09-19 09:10:32.250|2017-09-16 15:51:55.000|Flooding|        101002747906
1|29.62693975|-95.2067636|12302 DUMAS, HOUSTON TX 77034|2017-09-12 15:50:02.560|2017-09-19 09:10:32.583|2017-09-16 15:50:01.000|Flooding|        101002747898
1|29.62694666|-95.20656875|12306 DUMAS, HOUSTON TX 77034|2017-09-12 15:47:54.977|2017-09-19 09:10:31.933|2017-09-16 15:47:54.000|Flooding|        101002747889
1|29.62695326|-95.2063825|12310 DUMAS, HOUSTON TX 77034|2017-09-12 15:45:51.903|2017-09-19 09:10:31.830|2017-09-16 15:45:51.000|Flooding|        101002747874
1|29.62695985|-95.20619662|12314 DUMAS, HOUSTON TX 77034|2017-09-12 15:43:53.447|2017-09-19 09:10:31.723|2017-09-16 15:43:53.000|Flooding|        101002747861
1|29.62696645|-95.20601058|12318 DUMAS, HOUSTON TX 77034|2017-09-12 15:43:58.007|2017-09-19 09:10:32.017|2017-09-16 15:43:57.000|Flooding|        101002747864
1|29.62697304|-95.20582469|12322 DUMAS, HOUSTON TX 77034|2017-09-12 15:41:54.130|2017-09-19 09:10:31.720|2017-09-16 15:41:53.000|Flooding|        101002747854
1|29.62697963|-95.2056388|12326 DUMAS, HOUSTON TX 77034|2017-09-12 15:39:59.020|2017-09-19 09:10:31.517|2017-09-16 15:39:58.000|Flooding|        101002747842
1|29.62698623|-95.20545256|12330 DUMAS, HOUSTON TX 77034|2017-09-12 15:39:58.500|2017-09-19 09:10:31.720|2017-09-16 15:39:58.000|Flooding|        101002747841
1|29.62699282|-95.2052667|12334 DUMAS, HOUSTON TX 77034|2017-09-12 15:37:52.433|2017-09-19 09:10:31.597|2017-09-16 15:37:52.000|Flooding|        101002747829
1|29.62699942|-95.20508063|12338 DUMAS, HOUSTON TX 77034|2017-09-12 15:37:53.313|2017-09-19 09:10:31.347|2017-09-16 15:37:52.000|Flooding|        101002747831
1|29.62700601|-95.20489473|12342 DUMAS, HOUSTON TX 77034|2017-09-12 15:35:55.000|2017-09-19 09:10:31.407|2017-09-16 15:35:54.000|Flooding|        101002747824
1|29.6270126|-95.20470885|12346 DUMAS, HOUSTON TX 77034|2017-09-12 15:35:51.173|2017-09-14 13:15:11.270|2017-09-16 15:35:51.000|Flooding|        101002747822
1|29.6270192|-95.2045227|12402 DUMAS, HOUSTON TX 77034|2017-09-12 15:33:56.403|2017-09-19 09:10:30.897|2017-09-16 15:33:56.000|Flooding|        101002747812
1|29.62702627|-95.20433661|12406 DUMAS, HOUSTON TX 77034|2017-09-12 15:34:02.567|2017-09-19 09:10:31.260|2017-09-16 15:34:01.000|Flooding|        101002747815
1|29.62703337|-95.20415006|12410 DUMAS, HOUSTON TX 77034|2017-09-12 15:33:56.790|2017-09-19 09:10:31.107|2017-09-16 15:33:56.000|Flooding|        101002747813
1|29.62704749|-95.20377896|12418 DUMAS, HOUSTON TX 77034|2017-09-12 15:31:56.873|2017-09-19 09:10:30.377|2017-09-16 15:31:56.000|Flooding|        101002747804
1|29.62705457|-95.20359274|12422 DUMAS, HOUSTON TX 77034|2017-09-12 15:29:59.350|2017-09-19 09:10:31.190|2017-09-16 15:29:59.000|Flooding|        101002747792
1|29.62706195|-95.20339893|12426 DUMAS, HOUSTON TX 77034|2017-09-12 15:29:57.560|2017-09-19 09:10:30.377|2017-09-16 15:29:57.000|Flooding|        101002747790
1|29.62739672|-95.20909779|12125 DUMAS, HOUSTON TX 77034|2017-09-12 15:55:51.330|2017-09-19 09:10:32.523|2017-09-16 15:55:51.000|Flooding|        101002747930
1|29.62741216|-95.20868475|12201 DUMAS, HOUSTON TX 77034|2017-09-12 15:55:54.540|2017-09-19 09:10:32.410|2017-09-16 15:55:54.000|Flooding|        101002747932
1|29.62742066|-95.20849408|12205 DUMAS, HOUSTON TX 77034|2017-09-12 15:54:03.423|2017-09-26 08:30:19.030|2017-09-16 15:54:02.000|Flooding|        101002747917
1|29.62742716|-95.20831408|12209 DUMAS, HOUSTON TX 77034|2017-09-12 15:53:55.390|2017-09-19 09:10:32.237|2017-09-16 15:53:55.000|Flooding|        101002747915
1|29.62743367|-95.20813417|12213 DUMAS, HOUSTON TX 77034|2017-09-12 15:53:51.820|2017-09-19 09:10:32.240|2017-09-16 15:53:51.000|Flooding|        101002747911
1|29.6274402|-95.2079537|12217 DUMAS, HOUSTON TX 77034|2017-09-12 15:53:54.523|2017-09-19 09:10:32.583|2017-09-16 15:53:53.000|Flooding|        101002747914
1|29.62745322|-95.20759368|12225 DUMAS, HOUSTON TX 77034|2017-09-12 15:51:56.257|2017-09-19 09:10:32.073|2017-09-16 15:51:55.000|Flooding|        101002747908
1|29.62745974|-95.20741321|12229 DUMAS, HOUSTON TX 77034|2017-09-12 15:51:52.287|2017-09-19 09:10:32.073|2017-09-16 15:51:52.000|Flooding|        101002747904
1|29.62746659|-95.20722377|12233 DUMAS, HOUSTON TX 77034|2017-09-12 15:50:02.007|2017-09-19 09:10:31.880|2017-09-16 15:50:01.000|Flooding|        101002747897
1|29.62749239|-95.20678352|12301 DUMAS, HOUSTON TX 77034|2017-09-12 15:47:55.640|2017-09-19 09:10:32.077|2017-09-16 15:47:55.000|Flooding|        101002747890
1|29.62749939|-95.20655646|12305 DUMAS, HOUSTON TX 77034|2017-09-12 15:47:52.107|2017-09-19 09:10:31.720|2017-09-16 15:47:51.000|Flooding|        101002747886
1|29.62750595|-95.20635092|12313 DUMAS, HOUSTON TX 77034|2017-09-12 15:45:57.413|2017-09-19 09:10:32.090|2017-09-16 15:45:57.000|Flooding|        101002747877
1|29.6275121|-95.20616483|12317 DUMAS, HOUSTON TX 77034|2017-09-12 15:43:57.530|2017-09-19 09:10:31.517|2017-09-16 15:43:57.000|Flooding|        101002747863
1|29.62751826|-95.20597844|12321 DUMAS, HOUSTON TX 77034|2017-09-12 15:41:52.727|2017-09-19 09:10:32.077|2017-09-16 15:41:52.000|Flooding|        101002747853
1|29.62754889|-95.20504375|12341 DUMAS, HOUSTON TX 77034|2017-09-12 15:35:55.403|2017-09-19 09:10:31.467|2017-09-16 15:35:55.000|Flooding|        101002747825
1|29.62754889|-95.20504375|12341 DUMAS, HOUSTON TX 77034|2017-09-12 15:40:00.333|2017-09-12 15:40:33.417|2017-09-16 15:40:00.000|Flooding|        101002747843
1|29.62755503|-95.20485739|12345 DUMAS, HOUSTON TX 77034|2017-09-12 15:35:52.153|2017-09-19 09:10:30.890|2017-09-16 15:35:51.000|Flooding|        101002747823
1|29.62756172|-95.20465402|12401 DUMAS, HOUSTON TX 77034|2017-09-12 15:34:03.497|2017-09-19 09:10:30.993|2017-09-16 15:34:03.000|Flooding|        101002747816
1|29.62758302|-95.20347328|12425 DUMAS, HOUSTON TX 77034|2017-09-12 15:31:53.630|2017-09-19 09:10:30.890|2017-09-16 15:31:53.000|Flooding|        101002747801
1|29.62765311|-95.38768003|Intersection 1000 W OREM DR&11700 SOUTH FWY|2017-08-27 18:44:41.263|2017-09-02 17:55:18.553|2017-08-31 18:44:40.000|Flooding|        101002723562
1|29.62767435|-95.21115548|12006 PALMCREST, HOUSTON TX 77034|2017-09-12 15:57:50.667|2017-09-19 09:10:32.593|2017-09-16 15:57:50.000|Flooding|        101002747937
1|29.62768104|-95.21097034|12010 PALMCREST, HOUSTON TX 77034|2017-09-12 16:00:02.390|2017-09-19 09:10:32.583|2017-09-16 16:00:02.000|Flooding|        101002747943
1|29.62769445|-95.21059949|12018 PALMCREST, HOUSTON TX 77034|2017-09-12 16:00:05.993|2017-09-19 09:10:32.880|2017-09-16 16:00:05.000|Flooding|        101002747945
1|29.62770112|-95.21041433|12022 PALMCREST, HOUSTON TX 77034|2017-09-18 14:40:09.637|2017-09-19 09:15:34.227|2017-09-22 14:40:09.000|Flooding|        101002757861
1|29.6277078|-95.21022918|12102 PALMCREST, HOUSTON TX 77034|2017-09-18 14:40:10.417|2017-09-19 09:15:35.223|2017-09-22 14:40:10.000|Flooding|        101002757862
1|29.62771449|-95.21004405|12106 PALMCREST, HOUSTON TX 77034|2017-09-12 16:03:55.933|2017-09-19 09:10:32.937|2017-09-16 16:03:55.000|Flooding|        101002747963
1|29.62772118|-95.20985887|12110 PALMCREST, HOUSTON TX 77034|2017-09-12 16:03:55.523|2017-09-19 09:10:33.077|2017-09-16 16:03:55.000|Flooding|        101002747962
1|29.62774125|-95.20930284|12122 PALMCREST, HOUSTON TX 77034|2017-09-12 16:07:55.003|2017-09-19 09:10:33.527|2017-09-16 16:07:54.000|Flooding|        101002747972
1|29.62776567|-95.20870143|12202 PALMCREST, HOUSTON TX 77034|2017-09-12 16:09:56.087|2017-09-19 09:10:33.397|2017-09-16 16:09:55.000|Flooding|        101002747982
1|29.62776567|-95.20870143|12202 PALMCREST, HOUSTON TX 77034|2017-09-12 16:10:04.360|2017-09-12 16:11:23.650|2017-09-16 16:10:04.000|Flooding|        101002747986
1|29.62777257|-95.20850994|12206 PALMCREST, HOUSTON TX 77034|2017-09-12 16:09:59.793|2017-09-19 09:10:32.937|2017-09-16 16:09:59.000|Flooding|        101002747985
1|29.62778712|-95.20814979|12214 PALMCREST, HOUSTON TX 77034|2017-09-12 16:11:51.843|2017-09-19 09:10:33.527|2017-09-16 16:11:51.000|Flooding|        101002747989
1|29.62779441|-95.20796933|12218 PALMCREST, HOUSTON TX 77034|2017-09-12 16:11:54.113|2017-09-19 09:10:33.883|2017-09-16 16:11:54.000|Flooding|        101002747991
1|29.62779567|-95.20431762|12409 DUMAS, HOUSTON TX 77034|2017-09-12 15:31:54.150|2017-09-19 09:10:30.763|2017-09-16 15:31:53.000|Flooding|        101002747802
1|29.62780167|-95.20778941|12222 PALMCREST, HOUSTON TX 77034|2017-09-12 16:13:53.263|2017-09-19 09:10:33.530|2017-09-16 16:13:52.000|Flooding|        101002748000
1|29.62780895|-95.20760928|12226 PALMCREST, HOUSTON TX 77034|2017-09-12 16:13:56.357|2017-09-19 09:10:33.463|2017-09-16 16:13:56.000|Flooding|        101002748002
1|29.62781624|-95.20742882|12230 PALMCREST, HOUSTON TX 77034|2017-09-12 16:13:55.817|2017-09-19 09:10:33.527|2017-09-16 16:13:55.000|Flooding|        101002748001
1|29.62784524|-95.20679913|12302 PALMCREST, HOUSTON TX 77034|2017-09-12 16:15:55.370|2017-09-19 09:10:33.527|2017-09-16 16:15:55.000|Flooding|        101002748009
1|29.62790926|-95.20619309|12306 PALMCREST, HOUSTON TX 77034|2017-09-12 16:15:56.037|2017-09-19 09:10:34.050|2017-09-16 16:15:55.000|Flooding|        101002748010
1|29.62792517|-95.20572565|12325 DUMAS, HOUSTON TX 77034|2017-09-12 15:41:52.297|2017-09-19 09:10:31.520|2017-09-16 15:41:52.000|Flooding|        101002747852
1|29.6280065|-95.36609601|12506 CLAYGATE, HOUSTON TX 77047|2017-03-05 18:40:43.887|2017-03-06 15:35:04.183|2017-03-09 18:40:43.000|Flooding|        101002521646
1|29.6280065|-95.36609601|12506 CLAYGATE, HOUSTON TX 77047|2017-06-05 19:25:35.863|2017-06-06 14:15:05.763|2017-06-09 19:25:35.000|Flooding|        101002625810
1|29.6280919|-95.45752786|5107 BOYNTON, HOUSTON TX 77045|2017-08-31 09:06:29.740|2017-09-02 17:55:14.423|2017-09-04 09:06:29.000|Flooding|        101002728650
1|29.62822374|-95.21119071|12005 PALMCREST, HOUSTON TX 77034|2017-09-12 15:57:52.967|2017-09-19 09:10:32.337|2017-09-16 15:57:52.000|Flooding|        101002747939
1|29.62823776|-95.2108184|12013 PALMCREST, HOUSTON TX 77034|2017-09-12 16:00:06.917|2017-09-19 09:10:32.670|2017-09-16 16:00:06.000|Flooding|        101002747946
1|29.62824476|-95.21063253|12017 PALMCREST, HOUSTON TX 77034|2017-09-12 16:00:11.187|2017-09-19 09:10:32.937|2017-09-16 16:00:11.000|Flooding|        101002747947
1|29.62825178|-95.2104463|12021 PALMCREST, HOUSTON TX 77034|2017-09-12 16:00:03.063|2017-09-19 09:10:32.937|2017-09-16 16:00:02.000|Flooding|        101002747944
1|29.62825878|-95.2102604|12101 PALMCREST, HOUSTON TX 77034|2017-09-18 14:40:13.913|2017-09-19 09:15:35.677|2017-09-22 14:40:13.000|Flooding|        101002757863
1|29.62825878|-95.2102604|12101 PALMCREST, HOUSTON TX 77034|2017-09-18 14:40:14.603|2017-09-18 14:43:00.827|2017-09-22 14:40:14.000|Flooding|        101002757864
1|29.62826579|-95.21007417|12105 PALMCREST, HOUSTON TX 77034|2017-09-12 16:03:52.380|2017-09-19 09:10:33.080|2017-09-16 16:03:52.000|Flooding|        101002747959
1|29.62827981|-95.20970204|12113 PALMCREST, HOUSTON TX 77034|2017-09-12 16:03:52.830|2017-09-19 09:10:33.003|2017-09-16 16:03:52.000|Flooding|        101002747960
1|29.62828682|-95.20951581|12117 PALMCREST, HOUSTON TX 77034|2017-09-12 16:07:51.550|2017-09-19 09:10:33.087|2017-09-16 16:07:51.000|Flooding|        101002747970
1|29.62831785|-95.20872569|12201 PALMCREST, HOUSTON TX 77034|2017-09-12 16:07:54.453|2017-09-19 09:10:33.080|2017-09-16 16:07:54.000|Flooding|        101002747971
1|29.62831785|-95.20872569|12201 PALMCREST, HOUSTON TX 77034|2017-09-12 16:09:56.523|2017-09-12 16:10:40.000|2017-09-16 16:09:55.000|Flooding|        101002747983
1|29.62832496|-95.20853327|12205 PALMCREST, HOUSTON TX 77034|2017-09-12 16:09:59.227|2017-09-19 09:10:33.190|2017-09-16 16:09:59.000|Flooding|        101002747984
1|29.62833972|-95.20816846|12213 PALMCREST, HOUSTON TX 77034|2017-09-12 16:11:52.223|2017-09-19 09:10:33.327|2017-09-16 16:11:51.000|Flooding|        101002747990
1|29.62835463|-95.20780376|12221 PALMCREST, HOUSTON TX 77034|2017-09-12 16:11:54.697|2017-09-19 09:10:33.267|2017-09-16 16:11:54.000|Flooding|        101002747992
1|29.62835463|-95.20780376|12221 PALMCREST, HOUSTON TX 77034|2017-09-12 16:13:52.783|2017-09-12 16:14:05.967|2017-09-16 16:13:52.000|Flooding|        101002747999
1|29.62836953|-95.20743915|12229 PALMCREST, HOUSTON TX 77034|2017-09-12 16:14:01.423|2017-09-19 09:10:34.270|2017-09-16 16:14:01.000|Flooding|        101002748003
1|29.62837708|-95.20725427|12233 PALMCREST, HOUSTON TX 77034|2017-09-12 16:15:52.807|2017-09-19 09:10:33.530|2017-09-16 16:15:52.000|Flooding|        101002748007
1|29.62839494|-95.2068277|12301 PALMCREST, HOUSTON TX 77034|2017-09-12 16:15:53.197|2017-09-19 09:10:33.790|2017-09-16 16:15:52.000|Flooding|        101002748008
1|29.62840219|-95.20659991|12305 PALMCREST, HOUSTON TX 77034|2017-09-12 16:17:50.973|2017-09-19 09:10:34.050|2017-09-16 16:17:50.000|Flooding|        101002748015
1|29.62857775|-95.21139416|12002 PALMDATE, HOUSTON TX 77034|2017-09-11 18:23:04.550|2017-09-12 11:55:12.660|2017-09-15 18:23:04.000|Flooding|        101002745818
1|29.62862396|-95.21009143|12106 PALMDATE, HOUSTON TX 77034|2017-09-12 16:27:55.597|2017-09-19 09:10:34.870|2017-09-16 16:27:55.000|Flooding|        101002748061
1|29.62863055|-95.20990557|12110 PALMDATE, HOUSTON TX 77034|2017-09-12 16:27:55.180|2017-09-19 09:10:35.080|2017-09-16 16:27:55.000|Flooding|        101002748060
1|29.62863716|-95.20971932|12114 PALMDATE, HOUSTON TX 77034|2017-09-12 16:27:52.817|2017-09-19 09:10:35.163|2017-09-16 16:27:52.000|Flooding|        101002748059
1|29.62865103|-95.20934724|12122 PALMDATE, HOUSTON TX 77034|2017-09-12 16:26:12.723|2017-09-19 09:10:34.660|2017-09-16 16:26:12.000|Flooding|        101002748053
1|29.62868477|-95.20855092|12206 PALMDATE, HOUSTON TX 77034|2017-09-12 16:25:50.280|2017-09-19 09:10:34.210|2017-09-16 16:25:49.000|Flooding|        101002748048
1|29.62871236|-95.20782107|12222 PALMDATE, HOUSTON TX 77034|2017-09-12 16:23:51.980|2017-09-19 09:10:34.517|2017-09-16 16:23:51.000|Flooding|        101002748042
1|29.62872614|-95.20745679|12230 PALMDATE, HOUSTON TX 77034|2017-09-12 16:21:51.920|2017-09-19 09:10:34.403|2017-09-16 16:21:51.000|Flooding|        101002748032
1|29.62873309|-95.20727297|12234 PALMDATE, HOUSTON TX 77034|2017-09-18 14:40:17.230|2017-09-19 09:15:35.500|2017-09-22 14:40:17.000|Flooding|        101002757865
1|29.62879229|-95.20681221|12302 PALMDATE, HOUSTON TX 77034|2017-09-12 16:21:51.527|2017-09-19 09:10:34.600|2017-09-16 16:21:51.000|Flooding|        101002748031
1|29.62912805|-95.21141848|12001 PALMDATE, HOUSTON TX 77034|2017-09-12 16:30:00.257|2017-09-19 09:10:35.223|2017-09-16 16:29:59.000|Flooding|        101002748074
1|29.62915594|-95.21066336|12017 PALMDATE, HOUSTON TX 77034|2017-09-12 16:30:02.873|2017-09-19 09:10:35.680|2017-09-16 16:30:02.000|Flooding|        101002748076
1|29.62917685|-95.21009724|12105 PALMDATE, HOUSTON TX 77034|2017-09-12 16:29:59.787|2017-09-19 09:10:35.223|2017-09-16 16:29:59.000|Flooding|        101002748073
1|29.62919079|-95.20971968|12113 PALMDATE, HOUSTON TX 77034|2017-09-12 16:27:52.330|2017-09-19 09:10:34.793|2017-09-16 16:27:52.000|Flooding|        101002748058
1|29.62920472|-95.20934249|12121 PALMDATE, HOUSTON TX 77034|2017-09-12 16:25:53.917|2017-09-19 09:10:34.877|2017-09-16 16:25:53.000|Flooding|        101002748051
1|29.62922422|-95.20876392|12201 PALMDATE, HOUSTON TX 77034|2017-09-12 16:25:50.733|2017-09-19 09:10:34.870|2017-09-16 16:25:49.000|Flooding|        101002748049
1|29.62923195|-95.20856057|12205 PALMDATE, HOUSTON TX 77034|2017-09-12 16:25:53.353|2017-09-19 09:10:34.870|2017-09-16 16:25:53.000|Flooding|        101002748050
1|29.62923892|-95.2083777|12209 PALMDATE, HOUSTON TX 77034|2017-09-12 16:23:51.627|2017-09-19 09:10:34.460|2017-09-16 16:23:51.000|Flooding|        101002748041
1|29.62926017|-95.20782204|12221 PALMDATE, HOUSTON TX 77034|2017-09-12 16:23:54.817|2017-09-19 09:10:34.053|2017-09-16 16:23:54.000|Flooding|        101002748044
1|29.62926734|-95.20763449|12225 PALMDATE, HOUSTON TX 77034|2017-09-12 16:23:54.163|2017-09-19 09:10:34.340|2017-09-16 16:23:54.000|Flooding|        101002748043
1|29.6292745|-95.20744731|12229 PALMDATE, HOUSTON TX 77034|2017-09-12 16:21:54.040|2017-09-19 09:10:34.050|2017-09-16 16:21:53.000|Flooding|        101002748033
1|29.62928173|-95.20725826|12233 PALMDATE, HOUSTON TX 77034|2017-09-12 16:20:00.020|2017-09-19 09:10:33.993|2017-09-16 16:19:59.000|Flooding|        101002748022
1|29.62928874|-95.20707479|12237 PALMDATE, HOUSTON TX 77034|2017-09-12 16:20:01.537|2017-09-19 09:10:34.527|2017-09-16 16:20:01.000|Flooding|        101002748023
1|29.62929589|-95.20688791|12301 PALMDATE, HOUSTON TX 77034|2017-09-12 16:20:03.873|2017-09-19 09:10:33.940|2017-09-16 16:20:03.000|Flooding|        101002748025
1|29.6293047|-95.20665726|12303 PALMDATE, HOUSTON TX 77034|2017-09-12 16:21:54.663|2017-09-19 09:10:34.150|2017-09-16 16:21:54.000|Flooding|        101002748034
1|29.62942743|-95.49067735|6907 RIVER BLUFF, HOUSTON TX 77085|2017-08-26 21:32:13.887|2017-08-30 13:00:13.720|2017-08-30 21:32:13.000|Flooding|        101002721356
1|29.62943572|-95.34359993|5255 PARK VILLAGE, HOUSTON TX 77048|2017-08-01 08:56:07.967|2017-08-03 13:45:06.377|2017-08-05 08:56:07.000|Flooding|        101002690642
1|29.6294892|-95.21143289|12002 PALMCROFT, HOUSTON TX 77034|2017-09-11 18:22:34.070|2017-09-12 12:20:10.450|2017-09-15 18:22:33.000|Flooding|        101002745798
1|29.62953057|-95.21032056|12102 PALMCROFT, HOUSTON TX 77034|2017-09-11 18:22:38.370|2017-09-12 15:25:10.067|2017-09-15 18:22:38.000|Flooding|        101002745801
1|29.62954402|-95.20844211|12210 PALMCROFT, HOUSTON TX 77034|2017-09-11 18:22:49.237|2017-09-12 13:05:17.057|2017-09-15 18:22:49.000|Flooding|        101002745808
1|29.62954634|-95.2095873|12118 PALMCROFT, HOUSTON TX 77034|2017-09-11 18:22:45.373|2017-09-12 13:05:17.393|2017-09-15 18:22:45.000|Flooding|        101002745806
1|29.62955521|-95.20815434|12214 PALMCROFT, HOUSTON TX 77034|2017-09-11 18:22:50.090|2017-09-12 12:50:09.960|2017-09-15 18:22:49.000|Flooding|        101002745809
1|29.62956642|-95.20786645|12222 PALMCROFT, HOUSTON TX 77034|2017-09-11 18:22:55.263|2017-09-12 11:50:16.470|2017-09-15 18:22:55.000|Flooding|        101002745812
1|29.62957742|-95.20758377|12226 PALMCROFT, HOUSTON TX 77034|2017-09-11 18:22:53.503|2017-09-12 12:50:09.857|2017-09-15 18:22:53.000|Flooding|        101002745811
1|29.6296|-95.20700342|12302 PALMCROFT, HOUSTON TX 77034|2017-09-11 18:22:57.150|2017-09-12 11:55:12.617|2017-09-15 18:22:57.000|Flooding|        101002745814
1|29.62961183|-95.20669951|12310 PALMCROFT, HOUSTON TX 77034|2017-09-11 18:22:56.807|2017-09-12 11:50:16.697|2017-09-15 18:22:56.000|Flooding|        101002745813
1|29.63002555|-95.21145889|12003 PALMCROFT, HOUSTON TX 77034|2017-08-27 00:52:26.457|2017-09-11 12:45:13.747|2017-08-31 00:52:25.000|Flooding|        101002721706
1|29.63002555|-95.21145889|12003 PALMCROFT, HOUSTON TX 77034|2017-09-11 18:22:36.290|2017-09-12 14:55:13.617|2017-09-15 18:22:36.000|Flooding|        101002745800
1|29.63004579|-95.21090266|12015 PALMCROFT, HOUSTON TX 77034|2017-09-11 18:22:35.487|2017-09-12 14:45:11.160|2017-09-15 18:22:35.000|Flooding|        101002745799
1|29.6300525|-95.2107183|12019 PALMCROFT, HOUSTON TX 77034|2017-09-11 18:22:43.450|2017-09-12 14:45:11.160|2017-09-15 18:22:43.000|Flooding|        101002745805
1|29.6300659|-95.21034992|12103 PALMCROFT, HOUSTON TX 77034|2017-09-11 18:22:39.800|2017-09-12 15:40:10.713|2017-09-15 18:22:39.000|Flooding|        101002745802
1|29.6300691|-95.20941355|12123 PALMCROFT, HOUSTON TX 77034|2017-09-11 18:22:47.857|2017-09-12 13:05:17.330|2017-09-15 18:22:47.000|Flooding|        101002745807
1|29.63007171|-95.49949221|12226 CARLSBAD, HOUSTON TX 77085|2017-08-31 10:14:03.720|2017-09-04 15:15:11.953|2017-09-04 10:14:03.000|Flooding|        101002728800
1|29.63007258|-95.21016644|12107 PALMCROFT, HOUSTON TX 77034|2017-09-11 18:22:41.543|2017-09-12 15:20:12.003|2017-09-15 18:22:41.000|Flooding|        101002745803
1|29.63008585|-95.2097991|12115 PALMCROFT, HOUSTON TX 77034|2017-09-11 18:22:43.120|2017-09-12 14:55:13.567|2017-09-15 18:22:43.000|Flooding|        101002745804
1|29.63038905|-95.50093923|12205 ZAVALLA, HOUSTON TX 77085|2017-08-26 20:13:26.960|2017-09-02 17:55:12.583|2017-08-30 20:13:26.000|Flooding|        101002721283
1|29.63041515|-95.46189971|5330 WILLOMINE, HOUSTON TX 77045|2017-09-04 10:58:26.173|2017-09-11 07:35:08.360|2017-09-08 10:58:26.000|Flooding|        101002733871
1|29.63043062|-95.21037366|12102 PALMTON, HOUSTON TX 77034|2017-08-27 03:40:19.320|2017-09-05 07:40:11.360|2017-08-31 03:40:19.000|Flooding|        101002721889
1|29.63047814|-95.36034944|4222 FAIRGREEN, HOUSTON TX 77047|2017-09-11 20:04:57.803|2017-09-12 15:55:12.483|2017-09-15 20:04:57.000|Flooding|        101002745906
1|29.63095512|-95.21113916|12011 PALMTON, HOUSTON TX 77034|2017-08-27 02:38:15.830|2017-09-07 11:15:13.617|2017-08-31 02:38:15.000|Flooding|        101002721816
1|29.63096246|-95.21095344|12015 PALMTON, HOUSTON TX 77034|2017-08-27 06:41:43.000|2017-09-05 08:10:07.443|2017-08-31 06:41:42.000|Flooding|        101002722151
1|29.63114921|-95.20926902|12127 PALMTON, HOUSTON TX 77034|2017-08-27 08:37:16.423|2017-09-07 07:30:09.320|2017-08-31 08:37:16.000|Flooding|        101002722355
1|29.63124385|-95.35180154|11831 ROANDALE, HOUSTON TX 77048|2017-08-31 09:00:19.077|2017-09-06 06:50:12.450|2017-09-04 09:00:18.000|Flooding|        101002728633
1|29.63177483|-95.27581018|Intersection 9400 RANDOLPH ST&8100 TAREYTON LN|2017-09-06 08:34:47.077|2017-09-08 08:15:09.373|2017-09-10 08:33:00.000|Flooding|        101002736686
1|29.63188567|-95.23981776|9590 MINNESOTA, HOUSTON TX 77075|2017-03-29 17:28:27.777|2017-03-30 11:20:06.603|2017-04-02 17:28:27.000|Flooding|        101002551198
1|29.63202591|-95.27755464|8017 TAREYTON, HOUSTON TX 77075|2017-08-26 23:15:04.250|2017-09-04 16:25:06.203|2017-08-30 23:15:04.000|Flooding|        101002721557
1|29.63209397|-95.45741421|5103 TRAIL LAKE, HOUSTON TX 77045|2017-10-15 20:42:12.690|2017-10-16 10:00:13.570|2017-10-19 20:42:12.000|Flooding|        101002792479
1|29.63234815|-95.44354006|4318 TRAIL LAKE, HOUSTON TX 77045|2017-09-11 15:19:13.983|2017-09-11 15:21:10.340|2017-09-15 15:19:13.000|Flooding|        101002745384
1|29.63237969|-95.44182843|4218 TRAIL LAKE, HOUSTON TX 77045|2017-09-11 15:22:22.010|2017-09-13 09:25:10.713|2017-09-15 15:22:21.000|Flooding|        101002745395
1|29.63249726|-95.46063141|5303 KNOTTY OAKS, HOUSTON TX 77045|2017-09-19 09:51:57.597|2017-09-25 09:25:35.603|2017-09-23 09:51:57.000|Flooding|        101002759511
1|29.63249937|-95.45115951|4735 KNOTTY OAKS, HOUSTON TX 77045|2017-09-14 16:12:07.087|2017-09-18 10:40:14.247|2017-09-18 16:12:06.000|Flooding|        101002752355
1|29.63265593|-95.44204623|4223 KNOTTY OAKS, HOUSTON TX 77045|2017-08-26 23:53:44.540|2017-09-07 15:55:13.730|2017-08-30 23:53:43.000|Flooding|        101002721624
1|29.63271891|-95.41412477|2639 WUTHERING HEIGHTS, HOUSTON TX 77045|2017-09-07 12:10:34.430|2017-09-11 10:50:09.043|2017-09-11 12:10:34.000|Flooding|        101002739283
1|29.63279837|-95.35403423|11710 CAPE HYANNIS, HOUSTON TX 77048|2017-06-05 20:23:52.137|2017-06-06 14:50:04.643|2017-06-09 20:23:51.000|Flooding|        101002625872
1|29.63405888|-95.35574951|Intersection 11610 CULLEN BLVD&4600 KENNEDY HEIGHTS BLVD|2017-08-27 00:46:02.890|2017-09-04 15:05:11.437|2017-08-31 00:46:02.000|Flooding|        101002721696
1|29.63423481|-95.34303225|5306 BOTANY, HOUSTON TX 77048|2017-08-31 14:47:10.220|2017-09-04 20:35:11.160|2017-09-04 14:47:09.000|Flooding|        101002729381
1|29.63495411|-95.3471883|11503 PANAY, HOUSTON TX 77048|2017-08-31 11:43:36.240|2017-09-06 07:20:12.377|2017-09-04 11:43:36.000|Flooding|        101002729023
1|29.63505058|-95.3606261|4226 TAREYTON, HOUSTON TX 77047|2017-09-13 16:51:57.400|2017-09-15 14:55:17.000|2017-09-17 16:51:57.000|Flooding|        101002750317
1|29.63505168|-95.23849747|10912 GULF, HOUSTON TX 77075|2017-08-27 00:11:23.253|2017-09-01 14:00:18.950|2017-08-31 00:11:22.000|Flooding|        101002721661
1|29.63518157|-95.24495105|10910 GULF FWY, HOUSTON TX 77075|2017-03-29 17:55:10.920|2017-03-30 11:00:06.320|2017-04-02 17:55:10.000|Flooding|        101002551230
1|29.63518157|-95.24495105|10910 GULF, HOUSTON TX 77075|2017-08-27 00:00:04.260|2017-09-01 14:50:21.080|2017-08-31 00:00:03.000|Flooding|        101002721642
1|29.63578221|-95.24375155|Intersection 9700 LEDGE ST&9300 NATHANIEL ST|2017-08-26 10:59:14.443|2017-08-26 14:20:12.987|2017-08-30 10:59:14.000|Flooding|        101002720768
1|29.63641457|-95.44076919|4147 BROOKSTON, HOUSTON TX 77045|2017-09-07 17:26:49.903|2017-09-11 10:25:10.377|2017-09-11 17:26:49.000|Flooding|        101002740050
1|29.63742941|-95.24214833|9800 HOLLOCK, HOUSTON TX 77075|2017-03-29 17:25:52.603|2017-03-30 11:50:06.807|2017-04-02 17:25:52.000|Flooding|        101002551192
1|29.63747808|-95.23223386|10210 BESSEMER, HOUSTON TX 77034|2017-08-30 20:29:01.960|2017-09-06 06:40:07.770|2017-09-03 20:29:01.000|Flooding|        101002728324
1|29.63766403|-95.24771411|9425 INTERVALE, HOUSTON TX 77075|2017-09-04 11:32:21.903|2017-09-06 10:15:07.210|2017-09-08 11:32:21.000|Flooding|        101002733911
1|29.63779203|-95.33633397|5634 ELM TREE, HOUSTON TX 77048|2017-09-01 16:37:55.900|2017-09-04 21:00:16.257|2017-09-05 16:37:55.000|Flooding|        101002731398
1|29.6379167|-95.35936721|11119 RUBIN, HOUSTON TX 77047|2017-08-27 01:28:55.910|2017-09-02 09:05:19.650|2017-08-31 01:28:55.000|Flooding|        101002721745
1|29.63830751|-95.34285899|5238 CANTERWAY, HOUSTON TX 77048|2017-08-30 10:27:39.803|2017-09-02 09:10:17.980|2017-09-03 10:27:39.000|Flooding|        101002727297
1|29.63864917|-95.22213344|8407 DELWIN, HOUSTON TX 77034|2017-09-24 18:03:59.783|2017-09-26 08:30:19.063|2017-09-28 18:03:59.000|Flooding|        101002768147
1|29.63895024|-95.22528874|10529 AVES, HOUSTON TX 77034|2017-08-26 23:55:26.757|2017-09-01 14:50:20.737|2017-08-30 23:55:26.000|Flooding|        101002721629
1|29.63958961|-95.23070783|10311 KITTRELL, HOUSTON TX 77034|2017-08-27 03:23:33.810|2017-09-05 12:15:12.757|2017-08-31 03:23:33.000|Flooding|        101002721871
1|29.63960402|-95.23931615|8210 MINNESOTA, HOUSTON TX 77034|2017-08-27 05:13:48.470|2017-09-05 12:20:07.623|2017-08-31 05:13:48.000|Flooding|        101002722015
1|29.63983532|-95.22358382|8211 TARBELL, HOUSTON TX 77034|2017-09-06 12:39:44.107|2017-09-08 13:35:14.333|2017-09-10 12:39:43.000|Flooding|        101002737404
1|29.63987352|-95.23245956|10206 TOLMAN, HOUSTON TX 77034|2017-09-01 16:49:20.277|2017-09-06 11:15:18.097|2017-09-05 16:49:19.000|Flooding|        101002731435
1|29.63987818|-95.35326225|10910 ROANDALE, HOUSTON TX 77048|2017-09-06 13:37:44.507|2017-09-08 07:55:14.137|2017-09-10 13:37:44.000|Flooding|        101002737550
1|29.6400792|-95.35947515|4303 GROTON, HOUSTON TX 77047|2017-06-05 19:47:51.323|2017-06-06 14:10:05.620|2017-06-09 19:47:51.000|Flooding|        101002625832
1|29.64053208|-95.22513802|10533 TOLMAN, HOUSTON TX 77034|2017-08-26 23:56:31.527|2017-09-05 07:45:11.650|2017-08-30 23:56:30.000|Flooding|        101002721630
1|29.64055784|-95.49161828|5843 FIRENZA, HOUSTON TX 77035|2017-08-26 21:06:58.087|2017-08-30 13:00:13.070|2017-08-30 21:06:57.000|Flooding|        101002721325
1|29.64114126|-95.35795478|4410 DACCA, HOUSTON TX 77047|2017-09-01 13:41:50.377|2017-09-01 15:00:44.540|2017-09-05 13:41:49.000|Flooding|        101002730974
1|29.64119228|-95.23049924|10319 NEY, HOUSTON TX 77034|2017-08-26 23:58:40.203|2017-09-05 08:05:06.457|2017-08-30 23:58:39.000|Flooding|        101002721639
1|29.6413117|-95.22361238|8015 TARBELL, HOUSTON TX 77034|2017-09-12 14:01:18.343|2017-09-18 09:15:09.430|2017-09-16 14:01:18.000|Flooding|        101002747399
1|29.64139548|-95.54402922|Intersection 9500 W AIRPORT BLVD&9500 RAVENSWORTH DR|2017-01-20 18:11:04.973|2017-01-21 15:20:03.687|2017-01-24 18:11:04.000|Flooding|        101002469499
1|29.64139548|-95.54402922|Intersection 9500 W AIRPORT BLVD&9500 RAVENSWORTH DR|2017-09-08 18:15:00.337|2017-09-19 09:05:32.660|2017-09-12 18:15:00.000|Flooding|        101002742554
1|29.64164946|-95.54376479|9502 RAVENSWORTH, HOUSTON TX 77031|2017-06-04 16:50:44.917|2017-06-06 06:10:03.993|2017-06-08 16:50:44.000|Flooding|        101002624106
1|29.64166834|-95.51653675|7927 W AIRPORT, HOUSTON TX 77071|2017-08-28 20:00:53.963|2017-09-02 13:10:17.410|2017-09-01 20:00:53.000|Flooding|        101002725512
1|29.64180388|-95.48767994|5731 FIRENZA, HOUSTON TX 77035|2017-09-28 18:06:41.430|2017-10-03 15:05:09.220|2017-10-02 18:06:41.000|Flooding|        101002775008
1|29.64181144|-95.46949551|12810 WICKLEY, HOUSTON TX 77085|2017-08-26 22:15:46.833|2017-09-04 14:05:11.740|2017-08-30 22:15:46.000|Flooding|        101002721442
1|29.64182363|-95.42226331|12807 AMBROSE, HOUSTON TX 77045|2017-08-26 22:10:51.020|2017-09-02 17:55:12.963|2017-08-30 22:10:50.000|Flooding|        101002721434
1|29.64187623|-95.5210952|Intersection 8100 W AIRPORT BLVD&12250 FONDREN MEADOW DR|2017-01-18 07:36:53.960|2017-01-18 16:25:06.200|2017-01-22 07:36:53.000|Flooding|        101002463380
1|29.64187623|-95.5210952|Intersection 8100 W AIRPORT BLVD&12250 FONDREN MEADOW DR|2017-02-14 11:20:30.877|2017-02-15 11:10:51.340|2017-02-18 11:20:30.000|Flooding|        101002499936
1|29.64187624|-95.51867678|Intersection 8000 W AIRPORT BLVD&11000 MCLAIN BLVD|2017-03-05 11:13:07.143|2017-03-06 15:30:04.203|2017-03-09 11:13:06.000|Flooding|        101002521431
1|29.64208785|-95.54599309|9519 WICKENBURG, HOUSTON TX 77031|2017-01-19 13:21:26.023|2017-01-19 14:30:06.343|2017-01-23 13:21:25.000|Flooding|        101002466426
1|29.64214443|-95.3393717|5422 S ACRES, HOUSTON TX 77048|2017-03-05 20:08:42.940|2017-03-06 10:50:03.453|2017-03-09 20:08:42.000|Flooding|        101002521700
1|29.64214525|-95.51658618|7917 W AIRPORT, HOUSTON TX 77071|2016-12-05 07:24:17.017|2016-12-05 09:55:04.693|2016-12-09 07:24:16.000|Flooding|        101002419571
1|29.64228151|-95.51967977|8030 AIRPORT, HOUSTON TX 77071|2017-03-05 21:09:11.310|2017-03-06 15:35:04.183|2017-03-09 21:09:11.000|Flooding|        101002521720
1|29.64228151|-95.51967977|8030 AIRPORT, HOUSTON TX 77071|2017-03-11 14:11:24.140|2017-03-13 10:30:04.810|2017-03-15 14:11:23.000|Flooding|        101002529233
1|29.64238314|-95.55211113|12410 COPPERFIELD, HOUSTON TX 77031|2017-08-26 21:44:35.323|2017-09-02 09:20:18.107|2017-08-30 21:44:35.000|Flooding|        101002721384
1|29.64251923|-95.23253198|758 GILPIN, HOUSTON TX 77034|2017-08-30 08:12:19.767|2017-09-05 15:25:07.857|2017-09-03 08:12:19.000|Flooding|        101002727081
1|29.6426183|-95.54704244|12319 VANDERHEATH, HOUSTON TX 77031|2017-01-18 10:54:11.577|2017-01-18 14:00:05.137|2017-01-22 10:54:11.000|Flooding|        101002463905
1|29.64261944|-95.54411958|9522 RAVENSWORTH, HOUSTON TX 77031|2017-01-23 03:09:14.043|2017-01-24 11:00:04.563|2017-01-27 03:09:13.000|Flooding|        101002471355
1|29.64261944|-95.54411958|9522 RAVENSWORTH, HOUSTON TX 77031|2017-08-28 14:09:23.167|2017-09-02 09:10:12.360|2017-09-01 14:09:22.000|Flooding|        101002724814
1|29.64261944|-95.54411958|9522 RAVENSWORTH, HOUSTON TX 77031|2017-09-10 10:02:51.563|2017-09-12 08:25:09.167|2017-09-14 10:02:51.000|Flooding|        101002743538
1|29.64267273|-95.46899816|12717 WICKLEY, HOUSTON TX 77085|2017-08-27 12:24:59.190|2017-09-05 08:15:07.843|2017-08-31 12:24:58.000|Flooding|        101002722911
1|29.64272512|-95.54431907|9526 RAVENSWORTH, HOUSTON TX 77031|2017-08-29 16:34:02.173|2017-09-02 06:44:29.083|2017-09-02 16:34:02.000|Flooding|        101002726610
1|29.64272512|-95.54431907|9526 RAVENSWORTH, HOUSTON TX 77031|2017-08-29 17:13:59.070|2017-09-02 09:15:18.730|2017-09-02 17:13:58.000|Flooding|        101002726647
1|29.64280064|-95.54383196|12510 MILLBANKS, HOUSTON TX 77031|2017-08-31 12:12:27.787|2017-09-02 13:25:13.263|2017-09-04 12:12:27.000|Flooding|        101002729085
1|29.6428026|-95.54450609|9530 RAVENSWORTH, HOUSTON TX 77031|2017-08-28 15:13:44.467|2017-09-02 09:10:12.360|2017-09-01 15:13:44.000|Flooding|        101002724980
1|29.6428026|-95.54450609|9530 RAVENSWORTH, HOUSTON TX 77031|2017-09-14 10:51:52.663|2017-09-18 10:45:18.983|2017-09-18 10:49:00.000|Flooding|        101002751502
1|29.64297788|-95.54399612|12506 MILLBANKS, HOUSTON TX 77031|2017-08-27 13:02:39.607|2017-09-02 09:20:18.167|2017-08-31 13:02:39.000|Flooding|        101002722981
1|29.64300033|-95.54484319|9538 RAVENSWORTH, HOUSTON TX 77031|2017-01-24 23:04:05.507|2017-01-25 06:55:04.973|2017-01-28 23:04:05.000|Flooding|        101002475161
1|29.64300033|-95.54484319|9538 RAVENSWORTH, HOUSTON TX 77031|2017-08-30 09:59:37.473|2017-09-02 09:15:18.530|2017-09-03 09:59:37.000|Flooding|        101002727246
1|29.64315124|-95.54295493|12526 MILLBANKS, HOUSTON TX 77031|2017-01-28 03:04:08.597|2017-01-30 13:25:03.817|2017-02-01 03:04:08.000|Flooding|        101002480352
1|29.64320202|-95.22501182|515 GILPIN, HOUSTON TX 77034|2017-08-27 04:18:18.713|2017-09-01 14:00:18.990|2017-08-31 04:18:18.000|Flooding|        101002721933
1|29.64322785|-95.54397918|12502 MILLBANKS, HOUSTON TX 77031|2017-01-18 16:40:28.417|2017-01-19 15:05:06.020|2017-01-22 16:40:28.000|Flooding|        101002465001
1|29.64322785|-95.54397918|12502 MILLBANKS, HOUSTON TX 77031|2017-08-28 11:31:39.090|2017-09-02 09:10:12.240|2017-09-01 11:31:37.000|Flooding|        101002724457
1|29.64324058|-95.54276313|12530 MILLBANKS, HOUSTON TX 77031|2017-09-22 14:23:51.750|2017-09-26 08:55:14.060|2017-09-26 14:23:51.000|Flooding|        101002766415
1|29.64326823|-95.54450933|12438 MILLBANKS, HOUSTON TX 77031|2017-09-08 14:29:32.037|2017-09-11 10:20:09.343|2017-09-12 14:29:31.000|Flooding|        101002741973
1|29.64343764|-95.22997306|706 ARVANA, HOUSTON TX 77034|2017-08-26 23:57:53.607|2017-09-01 14:00:18.850|2017-08-30 23:57:53.000|Flooding|        101002721636
1|29.64345383|-95.55073155|9718 RATHBONE, HOUSTON TX 77031|2017-01-18 12:30:19.997|2017-01-18 19:00:06.547|2017-01-22 12:30:19.000|Flooding|        101002464231
1|29.64347225|-95.5448899|12430 MILLBANKS, HOUSTON TX 77031|2017-09-07 14:29:12.590|2017-09-11 10:15:19.527|2017-09-11 14:29:12.000|Flooding|        101002739595
1|29.64357176|-95.38790886|Intersection 1992 AIRPORT BLVD&10700 SOUTH FWY|2017-03-05 12:24:10.787|2017-03-06 15:30:04.323|2017-03-09 12:24:10.000|Flooding|        101002521465
1|29.64378321|-95.54284509|12531 MILLBANKS, HOUSTON TX 77031|2017-01-19 19:06:53.340|2017-01-20 12:00:06.700|2017-01-23 19:06:53.000|Flooding|        101002467223
1|29.64378321|-95.54284509|12531 MILLBANKS, HOUSTON TX 77031|2017-08-28 15:58:27.193|2017-09-02 09:15:18.423|2017-09-01 15:58:27.000|Flooding|        101002725068
1|29.64381145|-95.54442095|12435 MILLBANKS, HOUSTON TX 77031|2017-09-20 11:31:43.197|2017-09-21 13:35:16.013|2017-09-24 11:31:43.000|Flooding|        101002762166
1|29.64384896|-95.54266246|12539 MILLBANKS, HOUSTON TX 77031|2017-09-14 11:31:52.930|2017-09-18 10:45:13.823|2017-09-18 11:31:52.000|Flooding|        101002751630
1|29.64395253|-95.48415025|5530 FONTENELLE, HOUSTON TX 77035|2017-09-21 13:19:59.780|2017-09-25 09:40:18.047|2017-09-25 13:19:59.000|Flooding|        101002764486
1|29.64395253|-95.48415025|5530 FONTENELLE, HOUSTON TX 77035|2017-09-21 13:30:02.413|2017-09-21 13:30:38.227|2017-09-25 13:30:02.000|Flooding|        101002764530
1|29.64401918|-95.54322973|12514 CHESSINGTON, HOUSTON TX 77031|2017-09-18 10:28:28.423|2017-09-21 13:35:16.143|2017-09-22 10:28:28.000|Flooding|        101002757134
1|29.64406491|-95.49665321|6019 W AIRPORT, HOUSTON TX 77035|2017-08-26 21:40:38.520|2017-09-02 17:55:17.400|2017-08-30 21:40:38.000|Flooding|        101002721376
1|29.64408049|-95.37793795|3109 AIRPORT, HOUSTON TX 77051|2017-09-26 14:46:26.903|2017-10-11 11:15:15.680|2017-09-30 14:46:26.000|Flooding|        101002771295
1|29.64408338|-95.54300773|12518 CHESSINGTON, HOUSTON TX 77031|2017-08-27 03:14:40.703|2017-09-02 09:05:20.507|2017-08-31 03:14:39.000|Flooding|        101002721858
1|29.6442575|-95.22862341|642 EASTLAKE, HOUSTON TX 77034|2017-08-27 00:51:16.067|2017-09-01 14:50:20.513|2017-08-31 00:51:15.000|Flooding|        101002721705
1|29.64445054|-95.53938218|10902 S SAM HOUSTON PKWY W, HOUSTON TX 77031|2017-08-28 21:44:33.430|2017-09-02 09:15:19.393|2017-09-01 21:44:33.000|Flooding|        101002725615
1|29.64448173|-95.538742|Intersection 9000 W AIRPORT BLVD&10900 S SAM HOUSTON PKWY W|2017-01-18 05:40:47.540|2017-01-18 11:05:05.803|2017-01-22 05:40:47.000|Flooding|        101002463270
1|29.64465986|-95.54522855|12410 CHESSINGTON, HOUSTON TX 77031|2017-01-18 15:14:32.990|2017-01-18 18:00:05.617|2017-01-22 15:14:32.000|Flooding|        101002464748
1|29.64477541|-95.54215985|12523 LANCELOT, HOUSTON TX 77031|2017-01-18 11:43:41.537|2017-01-18 19:35:06.047|2017-01-22 11:43:41.000|Flooding|        101002464080
1|29.64478045|-95.54286661|12531 CHESSINGTON, HOUSTON TX 77031|2017-09-08 13:37:04.297|2017-10-31 12:39:32.973|2017-09-12 13:37:04.000|Flooding|        101002741502
1|29.64480277|-95.22120862|327 EASTLAKE, HOUSTON TX 77034|2017-08-27 01:09:36.080|2017-09-01 14:00:18.483|2017-08-31 01:09:35.000|Flooding|        101002721720
1|29.64495966|-95.24846718|9406 REDFORD, HOUSTON TX 77075|2017-08-26 23:42:11.730|2017-09-01 14:00:18.527|2017-08-30 23:42:11.000|Flooding|        101002721606
1|29.6450249|-95.54245445|12515 LANCELOT, HOUSTON TX 77031|2017-01-23 12:58:13.410|2017-01-26 16:40:06.323|2017-01-27 12:58:11.000|Flooding|        101002472208
1|29.64509911|-95.22633761|538 EDGEBROOK, HOUSTON TX 77034|2017-08-30 15:26:50.507|2017-09-01 14:45:18.353|2017-09-03 15:26:50.000|Flooding|        101002727907
1|29.64512408|-95.22569539|526 EDGEBROOK, HOUSTON TX 77034|2017-08-27 08:15:06.523|2017-09-01 14:00:19.873|2017-08-31 08:15:05.000|Flooding|        101002722316
1|29.64520933|-95.20933526|330 PARLIAMENT, HOUSTON TX 77034|2017-08-30 18:13:33.213|2017-09-05 12:10:07.960|2017-09-03 18:13:33.000|Flooding|        101002728175
1|29.64525628|-95.54626359|12322 CHESSINGTON, HOUSTON TX 77031|2017-01-18 15:36:38.980|2017-01-18 19:10:05.770|2017-01-22 15:36:38.000|Flooding|        101002464806
1|29.6453839|-95.22655493|Intersection 600 EDGEBROOK DR&2400 FREY RD|2017-03-29 14:43:23.197|2017-03-30 09:45:08.917|2017-04-02 14:43:23.000|Flooding|        101002550782
1|29.64553088|-95.54305263|12439 LANCELOT, HOUSTON TX 77031|2017-09-14 15:01:55.980|2017-09-18 12:10:13.000|2017-09-18 15:01:55.000|Flooding|        101002752157
